CompanyID,CompanyName,CompanySize,EmployeeCount,AnnualRevenueEUR,Industry,Region,Country,Latitude,Longitude
1001,Peldon Cloud,SMB,185,911412,Tech,Eastern Europe,Hungary,46.0724,19.7296
1002,Marmon Stores,SMB,100,2337143,Retail,Eastern Europe,Romania,47.2787,23.5506
1003,Kenton Labs,SMB,45,1315070,Tech,Western Europe,Switzerland,48.1374,9.1043
1004,Melex Trading,SMB,43,1256093,Retail,Western Europe,Belgium,48.1668,3.8243
1005,Lomon Ventures,SMB,103,4953112,Finance,Western Europe,France,44.3608,2.397
1006,Wenion Therapeutics,SMB,85,3341349,Healthcare,Eastern Europe,Romania,47.9702,27.1209
1007,Vendon Solutions,SMB,183,3833729,Tech,UK,United Kingdom,55.2708,-3.3719
1008,Zamon MedTech,SMB,126,3591920,Healthcare,Western Europe,Belgium,48.0696,4.6829
1009,Malon Supplies,SMB,37,2461440,Retail,Western Europe,Belgium,52.1121,6.7015
1010,Fladen Labs,SMB,26,4394558,Tech,UK,United Kingdom,56.0763,-3.3932
1011,Pelden Capital,SMB,136,1474089,Finance,Western Europe,France,43.9267,-0.1139
1012,Laden Ventures,SMB,200,4015890,Finance,Eastern Europe,Hungary,46.9682,20.2524
1013,Welton Trading,SMB,167,3923524,Retail,Western Europe,Belgium,51.2746,6.1685
1014,Cleen Labs,SMB,102,1333446,Tech,Western Europe,Belgium,50.2235,3.1806
1015,Nallon Capital,SMB,41,4314445,Finance,UK,United Kingdom,51.8028,-3.1206
1016,Finder Commerce,SMB,95,2543203,Retail,Eastern Europe,Slovakia,51.0555,17.4529
1017,Onion Distribution,SMB,69,3256157,Retail,Western Europe,Austria,46.0358,13.0798
1018,Eados Solutions,SMB,43,2602639,Tech,UK,United Kingdom,52.8864,0.4201
1019,Rankon Systems,SMB,70,3215991,Tech,Eastern Europe,Poland,50.059,18.3912
1020,Varkon Digital,SMB,26,4495040,Tech,Western Europe,Switzerland,46.4048,6.2682
1021,Tarlon Stores,SMB,167,863772,Retail,Eastern Europe,Poland,51.66,17.7077
1022,Serkon Distribution,SMB,25,4517991,Retail,UK,United Kingdom,53.7902,0.3201
1023,Jovan Production,SMB,30,3202069,Manufacturing,Eastern Europe,Hungary,48.262,19.1178
1024,Penvan Cloud,SMB,93,3695257,Tech,Western Europe,Austria,48.1654,14.7418
1025,Olvan Engineering,SMB,39,2303744,Manufacturing,Western Europe,Austria,47.151,15.9655
1026,Varmon Works,SMB,196,1297637,Manufacturing,Western Europe,Netherlands,53.7371,4.7937
1027,Perox Industries,SMB,131,1063155,Manufacturing,Eastern Europe,Romania,48.168,25.8341
1028,Wellon Health,SMB,43,1003156,Healthcare,Western Europe,Germany,52.4229,9.7632
1029,Milden Pharma,SMB,118,931560,Healthcare,Eastern Europe,Poland,51.454,20.968
1030,Malen Distribution,SMB,133,2381102,Retail,Western Europe,Austria,47.5371,12.7737
1031,Yeldon Solutions,SMB,67,4099655,Tech,Eastern Europe,Romania,43.9744,23.7928
1032,Karton Industries,SMB,16,2743514,Manufacturing,Eastern Europe,Slovakia,49.2679,20.4135
1033,Graden Cloud,SMB,56,1701680,Tech,Eastern Europe,Romania,48.0077,24.1551
1034,Saron Supplies,SMB,145,2304665,Retail,Western Europe,Switzerland,47.4659,5.8533
1035,Irton Industries,SMB,155,1212671,Manufacturing,Western Europe,Netherlands,51.1582,4.4219
1036,Fravan Digital,SMB,179,4056893,Tech,Eastern Europe,Poland,52.7698,17.9605
1037,Pelkon Trading,SMB,120,1430210,Retail,Western Europe,France,47.4747,0.2691
1038,Saleon Retail,SMB,111,959544,Retail,Eastern Europe,Slovakia,49.5357,17.4271
1039,Halton Investments,SMB,40,564843,Finance,UK,United Kingdom,55.3208,-3.0528
1040,Penden Retail,SMB,153,3470969,Retail,Western Europe,Belgium,50.6629,3.1506
1041,Veron Ventures,SMB,90,4101097,Finance,Eastern Europe,Hungary,44.7937,21.5058
1042,Telco Production,SMB,93,1941776,Manufacturing,Eastern Europe,Romania,43.9759,22.5043
1043,Xenco Production,SMB,72,4154719,Manufacturing,Eastern Europe,Romania,43.8406,26.6224
1044,Tenvan Production,SMB,53,1140716,Manufacturing,Western Europe,Netherlands,53.329,3.9079
1045,Galvan Commerce,SMB,196,1738912,Retail,Eastern Europe,Czech Republic,51.8296,14.7469
1046,Umcon Software,SMB,177,1132109,Tech,Western Europe,France,46.712,3.5011
1047,Welros Therapeutics,SMB,124,3211267,Healthcare,Eastern Europe,Hungary,48.4722,20.6994
1048,Goden Health,SMB,87,2804129,Healthcare,Western Europe,Belgium,48.3414,4.211
1049,Tellon Systems,SMB,104,2908176,Tech,Eastern Europe,Romania,45.7087,22.588
1050,Milex Supplies,SMB,128,844123,Retail,UK,United Kingdom,54.575,-1.9647
1051,Hendon Clinics,SMB,48,1019034,Healthcare,Eastern Europe,Czech Republic,48.9076,15.3781
1052,Parvan Systems,SMB,175,1947529,Tech,UK,United Kingdom,56.4119,-4.0784
1053,Senlon Partners,SMB,103,3627709,Finance,Western Europe,Belgium,50.6203,5.049
1054,Fender Partners,SMB,95,1052908,Finance,Eastern Europe,Slovakia,46.4618,20.3544
1055,Nordon Technologies,SMB,164,1761422,Tech,Eastern Europe,Romania,44.66,26.6578
1056,Garden Software,SMB,179,3787981,Tech,Eastern Europe,Romania,44.9512,25.6803
1057,Lekon Components,SMB,94,1572011,Manufacturing,UK,United Kingdom,54.2946,-1.2825
1058,Tarden Trading,SMB,102,652928,Retail,UK,United Kingdom,54.7301,-2.383
1059,Palvan Finance,SMB,67,1653981,Finance,UK,United Kingdom,56.2383,-2.0686
1060,Unon Systems,SMB,199,4916867,Tech,Eastern Europe,Poland,51.9384,19.2989
1061,Walkon Stores,SMB,56,1888643,Retail,UK,United Kingdom,54.4862,-3.7287
1062,Nelton Components,SMB,166,2890148,Manufacturing,Western Europe,Switzerland,47.8979,10.5479
1063,Elvan Trading,SMB,130,2127525,Retail,Western Europe,France,45.2473,3.7431
1064,Quadex Goods,SMB,107,4718687,Retail,Eastern Europe,Hungary,47.0084,18.3089
1065,Marvan Components,SMB,74,937715,Manufacturing,Western Europe,France,47.7063,0.392
1066,Linon Industries,SMB,41,2891281,Manufacturing,Western Europe,Germany,52.257,10.4795
1067,Domax Trading,SMB,66,4284335,Retail,Western Europe,Austria,45.7367,14.1874
1068,Axon Medical,SMB,30,3644995,Healthcare,Western Europe,Belgium,50.51,3.1789
1069,Kenlon Labs,SMB,83,4463239,Tech,UK,United Kingdom,55.4569,-3.812
1070,Relmon Pharma,SMB,30,659416,Healthcare,Eastern Europe,Hungary,46.943,16.9263
1071,Ibden Partners,SMB,83,2493470,Finance,Western Europe,Switzerland,47.3444,7.8163
1072,Malton Cloud,SMB,38,4692871,Tech,Western Europe,Switzerland,48.2695,7.9856
1073,Telvan Production,SMB,119,513122,Manufacturing,Eastern Europe,Slovakia,47.4097,17.9179
1074,Sardon Ventures,SMB,102,1067735,Finance,Eastern Europe,Czech Republic,50.6219,13.4281
1075,Henlon Components,SMB,130,865193,Manufacturing,Eastern Europe,Slovakia,48.9708,19.1523
1076,Omex Advisory,SMB,98,2522710,Finance,Western Europe,Switzerland,44.3812,9.6426
1077,Falox Goods,SMB,21,3455298,Retail,Western Europe,Austria,48.6759,13.6626
1078,Terdon Capital,SMB,56,1631225,Finance,Eastern Europe,Hungary,49.6041,19.2927
1079,Quakon Trading,SMB,61,851532,Retail,UK,United Kingdom,52.9672,-4.281
1080,Janon Pharma,SMB,175,2103091,Healthcare,Eastern Europe,Slovakia,48.567,17.3831
1081,Harion Advisory,SMB,121,3855625,Finance,Eastern Europe,Romania,44.7661,26.3967
1082,Ilon Production,SMB,137,3581529,Manufacturing,UK,United Kingdom,56.3686,-2.019
1083,Renox Partners,SMB,56,2964291,Finance,Western Europe,Belgium,48.3946,5.0123
1084,Nelex Labs,SMB,119,1897917,Tech,Western Europe,Netherlands,51.1325,5.8131
1085,Perex Components,SMB,121,2803137,Manufacturing,Western Europe,Switzerland,48.6502,7.4628
1086,Parex Healthcare,SMB,141,1842065,Healthcare,UK,United Kingdom,54.8559,-2.4689
1087,Pollon Technologies,SMB,175,3572985,Tech,Eastern Europe,Hungary,44.874,17.2362
1088,Pilex Investments,SMB,104,3620674,Finance,Eastern Europe,Slovakia,46.9672,19.4496
1089,Yaex Retail,SMB,81,2593894,Retail,Eastern Europe,Slovakia,48.0347,18.7719
1090,Brion Labs,SMB,77,2683468,Tech,Western Europe,Austria,46.9349,14.8084
1091,Pellon Manufacturing,SMB,61,1528757,Manufacturing,UK,United Kingdom,54.9699,0.4931
1092,Marex MedTech,SMB,184,3180896,Healthcare,Western Europe,Switzerland,46.5256,6.139
1093,Eakon Group,SMB,50,1960381,Finance,Western Europe,Austria,46.4518,13.4998
1094,Hellon Partners,SMB,136,720486,Finance,Western Europe,France,47.6603,0.8837
1095,Domen Engineering,SMB,26,3094518,Manufacturing,Western Europe,Austria,45.6489,16.4212
1096,Azure Medical,SMB,157,1118665,Healthcare,Eastern Europe,Slovakia,48.254,19.2472
1097,Warlon Therapeutics,SMB,42,2026417,Healthcare,Eastern Europe,Hungary,47.0292,19.4868
1098,Venon Medical,SMB,87,1881243,Healthcare,Western Europe,Germany,52.857,10.4905
1099,Olex Partners,SMB,82,1161524,Finance,Eastern Europe,Romania,48.1374,24.9945
1100,Nalco Cloud,SMB,146,1283734,Tech,UK,United Kingdom,52.1259,-2.9859
1101,Arden Distribution,SMB,194,3332158,Retail,Eastern Europe,Slovakia,46.971,20.4937
1102,Helco MedTech,SMB,157,2720094,Healthcare,Western Europe,Germany,49.1061,12.6427
1103,Valton Advisory,SMB,170,2929941,Finance,Eastern Europe,Slovakia,49.395,19.6902
1104,Leion Medical,SMB,186,1002586,Healthcare,Western Europe,Switzerland,46.3305,7.9677
1105,Graion Components,SMB,193,3178620,Manufacturing,Western Europe,France,45.401,0.4183
1106,Pilon Pharma,SMB,153,1390735,Healthcare,Western Europe,Belgium,48.6538,3.8527
1107,Iavan Group,SMB,84,3722482,Finance,Western Europe,Belgium,49.2396,2.4841
1108,Milion Commerce,SMB,194,3123242,Retail,Western Europe,France,47.7674,4.3688
1109,Ulros Retail,SMB,137,694416,Retail,Western Europe,Austria,47.3341,16.3954
1110,Jolon Clinics,SMB,22,2860188,Healthcare,Eastern Europe,Czech Republic,48.3757,14.7645
1111,Noron Manufacturing,SMB,37,4114884,Manufacturing,Eastern Europe,Hungary,46.1287,16.9409
1112,Olton Pharma,SMB,155,2132887,Healthcare,Eastern Europe,Hungary,46.5297,18.9029
1113,Menco Manufacturing,SMB,169,1496659,Manufacturing,Western Europe,Austria,47.2518,14.7493
1114,Pallon Health,SMB,46,2169818,Healthcare,Western Europe,Netherlands,52.3892,4.628
1115,Yaros Engineering,SMB,131,4856478,Manufacturing,Eastern Europe,Poland,49.5946,20.168
1116,Kelco Cloud,SMB,51,3796341,Tech,UK,United Kingdom,53.1398,-1.4347
1117,Milvan Supplies,SMB,135,3014825,Retail,Western Europe,Netherlands,52.1366,5.3486
1118,Ilden Health,SMB,88,723532,Healthcare,Western Europe,Switzerland,44.848,7.7827
1119,Denon Components,SMB,53,4897579,Manufacturing,UK,United Kingdom,55.107,-1.5824
1120,Garvan Commerce,SMB,18,1421870,Retail,Eastern Europe,Hungary,45.4389,20.3036
1121,Linkon Solutions,SMB,138,4456113,Tech,Western Europe,France,45.7648,0.7195
1122,Quadon Health,SMB,179,4512866,Healthcare,Eastern Europe,Czech Republic,49.8934,15.8044
1123,Pendon Ventures,SMB,100,2717630,Finance,UK,United Kingdom,56.0606,-2.7884
1124,Parkon Components,SMB,86,2924342,Manufacturing,UK,United Kingdom,54.2904,-3.3757
1125,Umon Partners,SMB,194,2793928,Finance,Eastern Europe,Romania,45.799,25.2024
1126,Halon Technologies,SMB,98,1728730,Tech,Eastern Europe,Hungary,49.1788,18.8727
1127,Gilton Software,SMB,75,4518808,Tech,UK,United Kingdom,53.2318,-2.2881
1128,Waldon Finance,SMB,167,2507243,Finance,Eastern Europe,Slovakia,49.6809,17.8864
1129,Venvan Labs,SMB,115,3270703,Tech,UK,United Kingdom,54.6897,-4.2375
1130,Nelden Components,SMB,50,3913387,Manufacturing,Eastern Europe,Czech Republic,47.3259,15.7518
1131,Senco Pharma,SMB,83,3194149,Healthcare,UK,United Kingdom,54.7527,-0.7204
1132,Pilkon Commerce,SMB,199,812880,Retail,UK,United Kingdom,54.7615,-3.3389
1133,Renton Components,SMB,136,2062895,Manufacturing,Eastern Europe,Poland,54.3859,18.585
1134,Salmon Pharma,SMB,37,3310536,Healthcare,UK,United Kingdom,51.5463,-1.6602
1135,Gracon Works,SMB,139,4426042,Manufacturing,Eastern Europe,Slovakia,48.6696,21.8928
1136,Kenon Systems,SMB,193,2061951,Tech,Western Europe,France,47.3556,2.9414
1137,Relden Distribution,SMB,166,3901499,Retail,Eastern Europe,Slovakia,49.572,18.1658
1138,Malvan Works,SMB,45,4505175,Manufacturing,Western Europe,Belgium,51.3463,2.9239
1139,Henvan Health,SMB,94,3032905,Healthcare,Western Europe,Belgium,49.1776,5.7688
1140,Endex Supplies,SMB,180,1491741,Retail,Western Europe,Switzerland,46.0978,6.8815
1141,Finmax Advisory,SMB,89,1484954,Finance,Western Europe,Austria,49.6155,16.439
1142,Walvan Clinics,SMB,132,1785013,Healthcare,Western Europe,Austria,46.1042,16.7868
1143,Breva Distribution,SMB,147,2332169,Retail,Eastern Europe,Hungary,48.2097,21.464
1144,Coben Ventures,SMB,102,1155173,Finance,Eastern Europe,Poland,52.0275,19.2409
1145,Lovan Solutions,SMB,52,3252450,Tech,Eastern Europe,Slovakia,47.2108,19.8833
1146,Kardon Industries,SMB,140,4236979,Manufacturing,Western Europe,France,47.2846,2.1441
1147,Jakon Components,SMB,182,3085113,Manufacturing,Eastern Europe,Hungary,47.5196,19.694
1148,Kalvan Technologies,SMB,21,4054231,Tech,Western Europe,Germany,52.429,10.7916
1149,Kenox Trading,SMB,130,766211,Retail,Eastern Europe,Poland,54.0729,16.9451
1150,Lalon Engineering,SMB,124,3666668,Manufacturing,Eastern Europe,Hungary,46.5723,21.3567
1151,Serden Cloud,SMB,55,3797214,Tech,UK,United Kingdom,54.7677,-2.7612
1152,Penex Cloud,SMB,128,4057843,Tech,UK,United Kingdom,55.2809,0.3925
1153,Penion Capital,SMB,195,1446609,Finance,Western Europe,Belgium,49.7308,3.3782
1154,Menton Clinics,SMB,162,781658,Healthcare,Western Europe,Germany,49.9033,8.2365
1155,Sellon Production,SMB,122,2465780,Manufacturing,Eastern Europe,Poland,50.6237,16.8212
1156,Ralion Ventures,SMB,69,3175158,Finance,UK,United Kingdom,52.2007,0.4674
1157,Monvan Manufacturing,SMB,179,4872570,Manufacturing,Eastern Europe,Romania,44.5845,26.7813
1158,Kalon Production,SMB,54,4083618,Manufacturing,Western Europe,Austria,49.7426,16.3986
1159,Onden Manufacturing,SMB,116,3924726,Manufacturing,UK,United Kingdom,55.429,-2.9063
1160,Penlon Group,SMB,86,1710910,Finance,Western Europe,Austria,47.3676,16.2467
1161,Galex Manufacturing,SMB,44,3758295,Manufacturing,Western Europe,Belgium,52.8389,4.7864
1162,Monlon Advisory,SMB,33,4993236,Finance,Western Europe,Germany,53.3111,12.1357
1163,Dorex Therapeutics,SMB,28,2078428,Healthcare,Western Europe,Belgium,51.3684,5.0146
1164,Jamon Retail,SMB,95,3043325,Retail,Eastern Europe,Slovakia,47.2851,18.2444
1165,Kelon Advisory,SMB,132,2535019,Finance,Western Europe,Switzerland,44.8866,10.6979
1166,Palco Goods,SMB,107,4411192,Retail,Western Europe,France,46.4604,3.5776
1167,Ullon Distribution,SMB,35,4438371,Retail,Western Europe,Netherlands,52.1641,5.2864
1168,Ibros Healthcare,SMB,66,1724088,Healthcare,UK,United Kingdom,53.0646,-4.2714
1169,Menden Ventures,SMB,68,3686326,Finance,UK,United Kingdom,52.976,-3.519
1170,Perdon Clinics,SMB,135,4615414,Healthcare,Western Europe,Switzerland,49.0173,7.3878
1171,Pervan Cloud,SMB,57,992680,Tech,Eastern Europe,Czech Republic,47.9998,15.7327
1172,Salen Systems,SMB,171,2441404,Tech,Eastern Europe,Poland,53.2217,18.662
1173,Idlon Stores,SMB,173,4553410,Retail,Western Europe,Austria,47.28,12.3023
1174,Lecon Production,SMB,194,2804692,Manufacturing,Western Europe,Austria,47.0567,12.0836
1175,Lanon Healthcare,SMB,55,1397718,Healthcare,Western Europe,Switzerland,47.6702,9.7308
1176,Illon Industries,SMB,78,3829408,Manufacturing,Western Europe,Austria,47.6323,16.0761
1177,Faros Advisory,SMB,86,1176263,Finance,Western Europe,Austria,46.216,15.4862
1178,Gerdon Healthcare,SMB,151,4493020,Healthcare,Eastern Europe,Poland,49.8675,18.4963
1179,Renco Goods,SMB,94,1299953,Retail,Eastern Europe,Poland,51.8993,18.7695
1180,Isvan MedTech,SMB,21,1123676,Healthcare,Western Europe,Switzerland,48.7378,8.0775
1181,Palros Health,SMB,14,2237768,Healthcare,UK,United Kingdom,52.3968,-0.2479
1182,Terton Cloud,SMB,154,2517226,Tech,Eastern Europe,Hungary,49.3444,18.3964
1183,Selros Health,SMB,45,1157899,Healthcare,Western Europe,Austria,46.6586,15.778
1184,Genion Distribution,SMB,97,3827786,Retail,Western Europe,Germany,50.8854,12.0934
1185,Fivon Finance,SMB,106,4122603,Finance,Eastern Europe,Hungary,47.153,18.6791
1186,Pelex Retail,SMB,73,1116618,Retail,Eastern Europe,Poland,53.2608,18.0769
1187,Telmon Capital,SMB,102,1393813,Finance,Western Europe,Switzerland,45.0714,7.6481
1188,Enton Digital,SMB,32,2071956,Tech,Western Europe,Netherlands,53.4067,3.3112
1189,Valex Production,SMB,151,1280679,Manufacturing,Eastern Europe,Hungary,45.2165,17.3481
1190,Demia Production,SMB,31,2536271,Manufacturing,Western Europe,Belgium,48.0617,4.0691
1191,Yelion Industries,SMB,136,1724190,Manufacturing,Eastern Europe,Czech Republic,47.9942,14.5057
1192,Quaion Labs,SMB,74,2568547,Tech,Western Europe,Netherlands,52.0212,3.1846
1193,Gravan Trading,SMB,11,3819304,Retail,Eastern Europe,Czech Republic,49.5893,13.6774
1194,Ieldon Pharma,SMB,176,1641894,Healthcare,Western Europe,Netherlands,51.8011,4.9531
1195,Tarex Partners,SMB,111,3177120,Finance,UK,United Kingdom,53.895,-3.6118
1196,Nelion Trading,SMB,81,3796178,Retail,Eastern Europe,Slovakia,50.1099,18.8294
1197,Unros Labs,SMB,150,725788,Tech,Eastern Europe,Slovakia,51.1863,18.0996
1198,Fakon Components,SMB,27,3932128,Manufacturing,Eastern Europe,Hungary,48.6884,21.0564
1199,Serco Industries,SMB,118,3662428,Manufacturing,Eastern Europe,Czech Republic,48.5634,13.7707
1200,Merox Production,SMB,187,4008960,Manufacturing,Eastern Europe,Slovakia,48.204,19.7331
1201,Nalros Software,SMB,180,3478029,Tech,UK,United Kingdom,52.0468,-3.2588
1202,Polex Retail,SMB,94,4110922,Retail,Western Europe,Switzerland,47.6874,7.6981
1203,Hallon Digital,SMB,186,2354148,Tech,Western Europe,Austria,48.7343,14.79
1204,Calyx Investments,SMB,98,706046,Finance,Western Europe,Switzerland,47.2429,8.2023
1205,Talex Technologies,SMB,46,3421992,Tech,Western Europe,Germany,49.2803,12.6034
1206,Pillon Partners,SMB,122,4295402,Finance,Eastern Europe,Slovakia,48.6146,19.5808
1207,Iakon Labs,SMB,175,1417400,Tech,Western Europe,Switzerland,44.8754,9.9459
1208,Velon Clinics,SMB,94,4076645,Healthcare,UK,United Kingdom,54.08,-1.7404
1209,Rendon Advisory,SMB,111,744882,Finance,Western Europe,France,44.6319,2.9865
1210,Iellon Trading,SMB,64,2226245,Retail,Western Europe,Austria,47.1478,12.0223
1211,Eleen Trading,SMB,147,2068332,Retail,Eastern Europe,Poland,52.2867,20.5975
1212,Ferlon Ventures,SMB,173,3129024,Finance,Western Europe,Netherlands,52.9535,5.2474
1213,Serton Group,SMB,168,1947265,Finance,Western Europe,Germany,50.4396,12.1276
1214,Penon Commerce,SMB,90,1488695,Retail,Eastern Europe,Slovakia,49.1508,20.5606
1215,Kelkon Ventures,SMB,162,1656514,Finance,Western Europe,Switzerland,45.0068,7.6423
1216,Tarox Investments,SMB,54,1899769,Finance,Western Europe,Switzerland,46.9869,10.2958
1217,Karex Finance,SMB,12,4565194,Finance,Western Europe,Belgium,51.097,6.3276
1218,Nellon Digital,SMB,185,4624895,Tech,Western Europe,Austria,47.5272,14.4748
1219,Mellon Retail,SMB,66,2950227,Retail,Western Europe,France,44.1134,-0.1457
1220,Senkon Capital,SMB,136,4784951,Finance,Eastern Europe,Czech Republic,51.2037,15.8283
1221,Kelmon Production,SMB,20,4202451,Manufacturing,Western Europe,Austria,49.1164,13.8343
1222,Endor Investments,SMB,86,770368,Finance,Western Europe,Switzerland,48.4504,9.4567
1223,Verdon Group,SMB,70,2260585,Finance,UK,United Kingdom,53.6953,0.4698
1224,Ranmon Distribution,SMB,45,2233251,Retail,Eastern Europe,Slovakia,49.3639,18.0299
1225,Kalco Advisory,SMB,53,3215003,Finance,Western Europe,Netherlands,52.2614,5.7843
1226,Inco Group,SMB,34,1637402,Finance,Eastern Europe,Slovakia,51.1274,20.5965
1227,Merco Commerce,SMB,43,2594444,Retail,UK,United Kingdom,55.8352,-3.8656
1228,Tervan Supplies,SMB,78,3974771,Retail,Eastern Europe,Hungary,47.1473,19.7871
1229,Wenden Engineering,SMB,187,3595993,Manufacturing,Eastern Europe,Poland,51.4143,20.349
1230,Daris MedTech,SMB,33,4345751,Healthcare,Western Europe,Germany,53.0445,12.1358
1231,Olcon Supplies,SMB,119,2277138,Retail,Western Europe,Germany,52.6784,9.8886
1232,Monex Advisory,SMB,134,3383496,Finance,Eastern Europe,Romania,46.1366,23.053
1233,Irmon Supplies,SMB,41,1825261,Retail,Western Europe,Switzerland,48.2194,7.9979
1234,Polton Manufacturing,SMB,43,3032231,Manufacturing,UK,United Kingdom,52.5116,-1.057
1235,Undon Healthcare,SMB,105,1888525,Healthcare,UK,United Kingdom,54.7729,-3.2481
1236,Iston Capital,SMB,33,1298458,Finance,Western Europe,Switzerland,48.0762,7.8462
1237,Ulton Advisory,SMB,12,567633,Finance,Western Europe,Austria,46.131,15.3999
1238,Isden Capital,SMB,68,3713423,Finance,Western Europe,Belgium,51.4702,4.3885
1239,Avon Stores,SMB,107,1616911,Retail,Western Europe,Netherlands,51.4378,4.2963
1240,Oldon Pharma,SMB,52,4191821,Healthcare,Western Europe,Austria,47.8165,15.0516
1241,Eamon Retail,SMB,123,2322380,Retail,Eastern Europe,Czech Republic,51.8995,16.0804
1242,Garox Therapeutics,SMB,119,3138247,Healthcare,Western Europe,Germany,51.6479,9.8202
1243,Imvan Solutions,SMB,194,2890088,Tech,Western Europe,Germany,49.9408,10.905
1244,Gallon Medical,SMB,165,4774185,Healthcare,Western Europe,Switzerland,48.6791,6.7272
1245,Inlon Supplies,SMB,71,4651419,Retail,Western Europe,Germany,52.619,11.8689
1246,Talen Technologies,SMB,13,3529111,Tech,Western Europe,Austria,45.3551,16.4436
1247,Kelvan Systems,SMB,130,1112299,Tech,UK,United Kingdom,53.3271,-1.0853
1248,Golmon Works,SMB,111,4749757,Manufacturing,Western Europe,France,43.8991,0.0023
1249,Gelkon Trading,SMB,173,1780776,Retail,Eastern Europe,Hungary,46.8179,18.9114
1250,Gavon Cloud,SMB,93,3777693,Tech,Western Europe,France,48.5716,0.4769
1251,Irvan Commerce,SMB,71,985750,Retail,Eastern Europe,Poland,50.9508,18.7874
1252,Germon Systems,SMB,180,1973424,Tech,Western Europe,Belgium,51.0615,2.2751
1253,Omvan Solutions,SMB,143,4838779,Tech,Western Europe,Germany,49.5192,12.6651
1254,Tenco Therapeutics,SMB,78,1490331,Healthcare,Western Europe,Netherlands,50.2347,6.7056
1255,Heron Clinics,SMB,192,1146510,Healthcare,Western Europe,Belgium,49.3599,2.3194
1256,Walmon Industries,SMB,50,2640068,Manufacturing,Western Europe,Belgium,52.2968,2.8344
1257,Jadon Medical,SMB,21,603079,Healthcare,Eastern Europe,Poland,50.542,19.1441
1258,Kalex Software,SMB,19,4017924,Tech,Western Europe,France,44.5948,4.5017
1259,Menlon Capital,SMB,156,3627341,Finance,Western Europe,Switzerland,45.8997,9.83
1260,Harco Industries,SMB,21,3863201,Manufacturing,UK,United Kingdom,52.6159,-1.9211
1261,Menvan Medical,SMB,12,3594719,Healthcare,UK,United Kingdom,53.1365,-1.7345
1262,Sarton Advisory,SMB,136,2139322,Finance,Eastern Europe,Slovakia,47.4129,19.0414
1263,Gilkon Health,SMB,16,2454526,Healthcare,Eastern Europe,Czech Republic,48.0528,17.662
1264,Filex Group,SMB,178,3656422,Finance,Eastern Europe,Poland,54.155,16.6073
1265,Xadon Commerce,SMB,135,1002436,Retail,Western Europe,France,46.3491,0.8908
1266,Mermon Supplies,SMB,189,3624689,Retail,Western Europe,France,48.1864,2.2988
1267,Gerco Health,SMB,110,1127723,Healthcare,Western Europe,Germany,51.2271,11.0861
1268,Sarox Components,SMB,90,3796325,Manufacturing,Western Europe,France,44.8839,1.005
1269,Renex Therapeutics,SMB,61,1641788,Healthcare,Western Europe,Belgium,49.3598,2.3734
1270,Graton Goods,SMB,114,1512813,Retail,Western Europe,Germany,49.5219,10.2303
1271,Finvan Finance,SMB,40,1258505,Finance,Eastern Europe,Hungary,46.2415,18.225
1272,Emlyn Healthcare,SMB,93,1744230,Healthcare,Western Europe,Switzerland,47.7844,5.9016
1273,Moron Retail,SMB,76,1958508,Retail,UK,United Kingdom,54.0673,-1.1141
1274,Iadon Healthcare,SMB,45,1518823,Healthcare,UK,United Kingdom,51.9736,-3.9905
1275,Eldon Cloud,SMB,105,1204973,Tech,Eastern Europe,Czech Republic,47.9536,17.1184
1276,Renion Manufacturing,SMB,175,4219771,Manufacturing,UK,United Kingdom,51.609,-4.1776
1277,Hervan Cloud,SMB,22,1909195,Tech,Eastern Europe,Romania,44.0126,27.1114
1278,Renkon Manufacturing,SMB,54,3469091,Manufacturing,Eastern Europe,Hungary,44.8474,20.3161
1279,Melmon MedTech,SMB,168,2561792,Healthcare,Western Europe,Belgium,52.4171,2.1732
1280,Monkon Investments,SMB,108,1651219,Finance,Western Europe,Austria,47.3952,12.4386
1281,Faden Solutions,SMB,14,3708626,Tech,UK,United Kingdom,54.6538,-0.4892
1282,Ranox Trading,SMB,92,3757978,Retail,Western Europe,Belgium,49.7202,4.8283
1283,Felros Solutions,SMB,81,991498,Tech,Western Europe,France,43.8465,3.7534
1284,Valkon MedTech,SMB,35,2579175,Healthcare,Eastern Europe,Slovakia,51.198,22.0699
1285,Ielex Partners,SMB,157,3758324,Finance,Eastern Europe,Poland,53.2202,21.339
1286,Perden Health,SMB,198,3509691,Healthcare,UK,United Kingdom,52.3805,-1.5374
1287,Finco Cloud,SMB,58,4629097,Tech,Eastern Europe,Slovakia,49.018,20.0155
1288,Idton Investments,SMB,15,4916170,Finance,Western Europe,Germany,48.9808,10.9083
1289,Benic Systems,SMB,55,3214459,Tech,UK,United Kingdom,55.5322,-2.7962
1290,Quaros Technologies,SMB,103,1108439,Tech,Eastern Europe,Czech Republic,51.1718,17.2324
1291,Meron Stores,SMB,44,1821238,Retail,Eastern Europe,Slovakia,46.7052,18.7088
1292,Pilmon Medical,SMB,153,3493269,Healthcare,Eastern Europe,Hungary,47.9459,17.771
1293,Salros Stores,SMB,42,1990725,Retail,Eastern Europe,Hungary,46.2341,20.3425
1294,Olon Software,SMB,155,771646,Tech,Eastern Europe,Slovakia,48.158,22.1714
1295,Halvan Trading,SMB,137,1679802,Retail,UK,United Kingdom,54.6982,-3.9794
1296,Cosmo Supplies,SMB,32,3316470,Retail,Western Europe,Netherlands,50.4394,7.2266
1297,Gralon Systems,SMB,37,510747,Tech,Western Europe,Switzerland,44.639,6.9833
1298,Yaden Ventures,SMB,106,3446340,Finance,Eastern Europe,Czech Republic,51.7228,15.4654
1299,Selden Capital,SMB,51,4285673,Finance,Eastern Europe,Slovakia,49.4548,20.6358
1300,Elton Commerce,SMB,28,3367295,Retail,Western Europe,Germany,50.2936,12.6583
1301,Laros Health,SMB,33,3334934,Healthcare,Western Europe,Germany,51.4352,12.3906
1302,Tarmon Medical,SMB,165,4142336,Healthcare,UK,United Kingdom,53.6566,-1.2318
1303,Zelion Labs,SMB,196,2725202,Tech,Western Europe,France,45.7464,2.4706
1304,Ralton Capital,SMB,135,1788405,Finance,Western Europe,Germany,50.6645,10.6483
1305,Deron Capital,SMB,132,2174993,Finance,Western Europe,Netherlands,53.7195,5.9255
1306,Ciron Solutions,SMB,39,3086655,Tech,Western Europe,Netherlands,54.4853,5.1679
1307,Zavan Partners,SMB,109,2050896,Finance,Western Europe,Switzerland,45.625,8.9093
1308,Ielen Therapeutics,SMB,77,2397857,Healthcare,Western Europe,Belgium,48.2231,4.1987
1309,Menkon Group,SMB,98,3972771,Finance,Western Europe,Switzerland,47.6373,6.1285
1310,Meldon Production,SMB,147,4483115,Manufacturing,Eastern Europe,Hungary,48.792,18.9932
1311,Terox Health,SMB,18,4711932,Healthcare,Western Europe,Germany,50.674,12.1697
1312,Gelvan Medical,SMB,124,1950213,Healthcare,Eastern Europe,Slovakia,46.9372,21.9463
1313,Norex Medical,SMB,184,4152343,Healthcare,Eastern Europe,Czech Republic,47.5134,13.3918
1314,Varvan Clinics,SMB,27,1230039,Healthcare,Eastern Europe,Slovakia,47.4894,21.754
1315,Pilden Engineering,SMB,13,4883567,Manufacturing,Eastern Europe,Romania,45.9984,26.9858
1316,Felcon Cloud,SMB,35,1386129,Tech,Western Europe,Austria,47.9397,15.7919
1317,Norion Stores,SMB,77,3713201,Retail,Eastern Europe,Slovakia,50.6007,21.5895
1318,Ibkon Industries,SMB,168,3869870,Manufacturing,Eastern Europe,Poland,50.261,18.6149
1319,Harton Capital,SMB,78,3624259,Finance,UK,United Kingdom,51.7465,-2.1239
1320,Gaven Group,SMB,188,1323907,Finance,Eastern Europe,Romania,44.8017,24.8581
1321,Ralkon Ventures,SMB,78,3996143,Finance,Western Europe,Switzerland,46.5156,9.8291
1322,Tarion Distribution,SMB,134,4832727,Retail,Western Europe,France,48.2672,1.7359
1323,Norman Group,SMB,113,1637913,Finance,Western Europe,France,44.0281,3.2478
1324,Inex Medical,SMB,61,983414,Healthcare,UK,United Kingdom,52.3687,-0.1241
1325,Finox Digital,SMB,128,4737307,Tech,Western Europe,Netherlands,53.1232,4.1699
1326,Ralen Distribution,SMB,124,1989679,Retail,Western Europe,Germany,49.9097,10.3439
1327,Elkon Works,SMB,186,1258262,Manufacturing,Eastern Europe,Romania,44.2176,26.8725
1328,Kelros Labs,SMB,66,2388376,Tech,Western Europe,Austria,48.8992,13.0716
1329,Idex Investments,SMB,184,574641,Finance,Eastern Europe,Slovakia,46.3003,21.1015
1330,Helon MedTech,SMB,165,3062381,Healthcare,Eastern Europe,Slovakia,50.2043,18.3189
1331,Halmon Medical,SMB,127,2613918,Healthcare,Eastern Europe,Hungary,49.1774,21.1579
1332,Corva Production,SMB,140,3639266,Manufacturing,Eastern Europe,Slovakia,48.1858,17.7116
1333,Herton Stores,SMB,96,2819309,Retail,Eastern Europe,Romania,46.8221,24.8087
1334,Garion Finance,SMB,86,2080078,Finance,Western Europe,Switzerland,47.8555,10.1619
1335,Cleva Components,SMB,163,3889823,Manufacturing,Western Europe,Germany,52.7271,11.9118
1336,Senden Investments,SMB,76,4011183,Finance,Western Europe,Germany,51.977,12.8873
1337,Laex Advisory,SMB,97,2365317,Finance,Western Europe,Switzerland,49.2738,9.7801
1338,Milmon Works,SMB,178,2019477,Manufacturing,Eastern Europe,Romania,45.9366,26.6271
1339,Relton Labs,SMB,56,3315489,Tech,Western Europe,Netherlands,53.2259,5.5952
1340,Tenox Technologies,SMB,94,3617898,Tech,Western Europe,Switzerland,48.6572,7.8024
1341,Terco Engineering,SMB,159,1097400,Manufacturing,Western Europe,Germany,51.0527,12.232
1342,Sarden Medical,SMB,48,1652303,Healthcare,Eastern Europe,Hungary,47.3492,18.9655
1343,Gerlon Investments,SMB,56,1177895,Finance,UK,United Kingdom,52.2161,-0.188
1344,Velvan Group,SMB,80,2256426,Finance,UK,United Kingdom,54.6725,-4.4764
1345,Umros Goods,SMB,32,1585535,Retail,Eastern Europe,Czech Republic,49.7479,16.8178
1346,Selkon Manufacturing,SMB,19,4977693,Manufacturing,Western Europe,Belgium,52.8266,3.9166
1347,Kalros Stores,SMB,14,534593,Retail,UK,United Kingdom,55.2842,-1.8448
1348,Quaden Commerce,SMB,138,3067879,Retail,Western Europe,Netherlands,51.1605,3.3135
1349,Valmon Digital,SMB,144,3333966,Tech,Western Europe,Netherlands,51.8796,5.4014
1350,Yelex Therapeutics,SMB,58,1883143,Healthcare,UK,United Kingdom,56.4807,-2.0491
1351,Kellon Manufacturing,SMB,15,4733173,Manufacturing,Western Europe,Switzerland,49.2244,6.756
1352,Findon Cloud,SMB,146,907576,Tech,Eastern Europe,Poland,51.276,19.8016
1353,Monton Healthcare,SMB,123,3689799,Healthcare,Eastern Europe,Poland,49.6412,17.1789
1354,Linton Engineering,SMB,12,3025947,Manufacturing,Western Europe,France,44.7275,3.1287
1355,Verex Goods,SMB,117,1380084,Retail,Eastern Europe,Romania,46.514,25.9036
1356,Filkon Distribution,SMB,165,2175619,Retail,Western Europe,Germany,52.6238,10.3887
1357,Umvan Ventures,SMB,51,830559,Finance,Eastern Europe,Czech Republic,49.0896,15.0488
1358,Vermon Industries,SMB,181,1246609,Manufacturing,Western Europe,Belgium,49.653,2.0137
1359,Arlen Pharma,SMB,29,1349686,Healthcare,Eastern Europe,Czech Republic,52.0472,16.8976
1360,Kelion Distribution,SMB,54,830884,Retail,Western Europe,Netherlands,50.9206,3.0504
1361,Enris Group,SMB,21,581137,Finance,Eastern Europe,Romania,45.53,22.9795
1362,Frelon Labs,SMB,169,2750742,Tech,Eastern Europe,Romania,45.1876,24.5886
1363,Felden Solutions,SMB,126,2780301,Tech,Eastern Europe,Czech Republic,47.8692,15.0013
1364,Polvan Advisory,SMB,38,1611587,Finance,UK,United Kingdom,54.7442,-0.5155
1365,Erron Commerce,SMB,133,4175576,Retail,UK,United Kingdom,52.0186,0.0561
1366,Tenden Supplies,SMB,196,1596016,Retail,Eastern Europe,Slovakia,46.3441,20.6223
1367,Filton Healthcare,SMB,177,3136018,Healthcare,Western Europe,Belgium,50.2034,2.3167
1368,Servan Goods,SMB,181,3337871,Retail,Eastern Europe,Slovakia,49.8189,18.3199
1369,Poldon Components,SMB,133,3400356,Manufacturing,Eastern Europe,Poland,51.5642,20.2333
1370,Harden Goods,SMB,12,1816402,Retail,Western Europe,Austria,49.4603,15.0646
1371,Ibon Pharma,SMB,71,3275747,Healthcare,UK,United Kingdom,51.8743,-2.0418
1372,Inon Digital,SMB,30,4351164,Tech,Western Europe,Switzerland,46.1932,9.7855
1373,Malion Healthcare,SMB,137,649058,Healthcare,Western Europe,Belgium,50.2353,2.5935
1374,Talion Production,SMB,164,3055152,Manufacturing,Western Europe,Austria,45.0008,12.4545
1375,Idmon Engineering,SMB,23,2369972,Manufacturing,Eastern Europe,Hungary,49.4518,18.7167
1376,Ulkon Capital,SMB,193,4296117,Finance,Eastern Europe,Slovakia,48.5657,20.4858
1377,Onton Technologies,SMB,84,4878728,Tech,Eastern Europe,Poland,51.1068,20.7494
1378,Goven Retail,SMB,200,3932708,Retail,Western Europe,France,46.1621,3.8092
1379,Idros Advisory,SMB,127,2098690,Finance,Western Europe,Germany,53.3511,9.8645
1380,Reldon Group,SMB,160,1533637,Finance,Eastern Europe,Poland,54.0331,20.7873
1381,Ermon Health,SMB,137,536386,Healthcare,Western Europe,Austria,49.781,12.6732
1382,Ibmon Stores,SMB,140,1986481,Retail,Eastern Europe,Hungary,48.8941,19.3147
1383,Karvan Production,SMB,165,3199821,Manufacturing,Eastern Europe,Czech Republic,47.8178,16.2876
1384,Omion Pharma,SMB,80,3837575,Healthcare,Western Europe,Austria,49.5796,15.8119
1385,Feron Therapeutics,SMB,141,3007465,Healthcare,Western Europe,France,44.3909,2.7126
1386,Ilkon Stores,SMB,84,3396532,Retail,UK,United Kingdom,52.5044,-1.3792
1387,Jodon Solutions,SMB,92,1468089,Tech,Eastern Europe,Czech Republic,49.8195,16.4716
1388,Genkon Partners,SMB,182,4978701,Finance,Western Europe,Austria,49.7134,15.5506
1389,Malkon MedTech,SMB,47,945141,Healthcare,Western Europe,Germany,51.3136,8.0264
1390,Wenon Labs,SMB,47,1020369,Tech,Western Europe,France,48.6177,3.117
1391,Loion Stores,SMB,36,2381626,Retail,Western Europe,Austria,45.1615,16.0701
1392,Menex Supplies,SMB,83,894095,Retail,Western Europe,Austria,48.9215,15.9941
1393,Idon Finance,SMB,200,2608402,Finance,UK,United Kingdom,56.3292,-4.231
1394,Wendon Distribution,SMB,190,3584836,Retail,Eastern Europe,Hungary,48.8499,21.4574
1395,Franon Manufacturing,SMB,85,4264932,Manufacturing,Eastern Europe,Czech Republic,51.1807,17.8214
1396,Wenton Pharma,SMB,20,4094584,Healthcare,Western Europe,France,47.3754,0.2968
1397,Walton Industries,SMB,129,1798604,Manufacturing,Western Europe,Austria,49.2301,12.0282
1398,Penco Digital,SMB,179,3026269,Tech,Western Europe,Germany,52.5683,11.0268
1399,Frevan Goods,SMB,66,2042405,Retail,Eastern Europe,Poland,53.3202,18.1893
1400,Halros Software,SMB,99,2355543,Tech,Eastern Europe,Hungary,47.4154,18.9171
1401,Serex Goods,SMB,145,4483390,Retail,Western Europe,Netherlands,50.6922,6.5633
1402,Olmon Healthcare,SMB,71,2545370,Healthcare,UK,United Kingdom,52.0736,-2.77
1403,Mendon Goods,SMB,82,707246,Retail,Western Europe,Germany,50.6294,10.6012
1404,Iaion Pharma,SMB,176,2114910,Healthcare,Western Europe,Austria,47.2278,12.2193
1405,Garlon Components,SMB,146,561493,Manufacturing,UK,United Kingdom,56.3581,-0.6334
1406,Farox Cloud,SMB,36,2224526,Tech,Eastern Europe,Czech Republic,51.6248,15.121
1407,Morkon Healthcare,SMB,185,1789786,Healthcare,UK,United Kingdom,54.7328,0.1988
1408,Velex Production,SMB,74,1090911,Manufacturing,Western Europe,Germany,49.0662,8.79
1409,Teldon Healthcare,SMB,120,3154191,Healthcare,UK,United Kingdom,53.4402,-1.3489
1410,Salex Advisory,SMB,200,881823,Finance,Western Europe,Germany,51.9071,10.9917
1411,Venion Pharma,SMB,87,1225658,Healthcare,Western Europe,Austria,45.5307,15.9345
1412,Gilco Commerce,SMB,50,4975051,Retail,Western Europe,Belgium,52.1106,2.1541
1413,Ibdon Systems,SMB,86,3630045,Tech,Western Europe,Austria,46.4749,15.1702
1414,Vellon Works,SMB,110,1214095,Manufacturing,Eastern Europe,Poland,49.6089,19.4636
1415,Gerion Finance,SMB,141,1695000,Finance,Eastern Europe,Romania,44.4587,26.9281
1416,Omros Solutions,SMB,155,956242,Tech,Eastern Europe,Romania,44.3716,23.3068
1417,Jalon Trading,SMB,181,1065079,Retail,UK,United Kingdom,54.7234,-4.1343
1418,Welco Systems,SMB,181,2467404,Tech,Eastern Europe,Hungary,49.4577,18.6857
1419,Inmon Advisory,SMB,167,3064191,Finance,Western Europe,France,45.2889,1.9532
1420,Kalkon Works,SMB,53,540532,Manufacturing,Eastern Europe,Romania,47.4385,27.1933
1421,Quanon Advisory,SMB,102,1626638,Finance,Western Europe,Switzerland,47.5042,7.0834
1422,Iblon Commerce,SMB,134,1412954,Retail,UK,United Kingdom,53.7268,-0.6262
1423,Fenex Trading,SMB,147,2147790,Retail,Western Europe,Netherlands,53.8936,3.5
1424,Unmon Distribution,SMB,171,761676,Retail,Eastern Europe,Poland,53.8605,20.8479
1425,Erlis Components,SMB,76,4460294,Manufacturing,Western Europe,Austria,46.0638,12.1833
1426,Godon Supplies,SMB,84,1623077,Retail,Western Europe,France,48.1572,2.648
1427,Sarex Production,SMB,167,1891196,Manufacturing,Western Europe,Netherlands,52.1108,6.1134
1428,Lemon Technologies,SMB,47,4555920,Tech,Western Europe,Austria,49.7436,15.2971
1429,Melkon Cloud,SMB,20,2234546,Tech,Eastern Europe,Czech Republic,47.6143,14.8472
1430,Polco Healthcare,SMB,20,3218505,Healthcare,Western Europe,Belgium,52.5895,6.4078
1431,Tarkon Supplies,SMB,149,1958357,Retail,Eastern Europe,Romania,47.5744,23.7166
1432,Walion Commerce,SMB,74,3656874,Retail,Western Europe,Switzerland,48.7911,6.0892
1433,Varox Production,SMB,164,555345,Manufacturing,Western Europe,Netherlands,52.0343,5.2106
1434,Ferven Medical,SMB,64,1760307,Healthcare,Western Europe,France,44.0854,2.9174
1435,Valion Digital,SMB,94,1450753,Tech,Eastern Europe,Poland,52.7055,18.6731
1436,Pelton Retail,SMB,15,2544054,Retail,Western Europe,Austria,45.8062,16.1668
1437,Famax Systems,SMB,156,1731993,Tech,Eastern Europe,Czech Republic,50.4477,13.196
1438,Mondon Systems,SMB,14,2877789,Tech,UK,United Kingdom,54.4968,-1.682
1439,Xamon Group,SMB,115,1697156,Finance,Eastern Europe,Hungary,49.0365,17.7528
1440,Pelvan Engineering,SMB,195,3374534,Manufacturing,Eastern Europe,Slovakia,49.4982,18.5226
1441,Unvan Production,SMB,61,4884820,Manufacturing,Western Europe,Belgium,49.9273,2.5429
1442,Sarco Distribution,SMB,167,827462,Retail,Eastern Europe,Slovakia,46.6815,19.5793
1443,Union Components,SMB,164,510068,Manufacturing,Eastern Europe,Poland,51.8112,17.2516
1444,Fralon Distribution,SMB,119,2425070,Retail,Eastern Europe,Romania,47.7741,25.8882
1445,Quaton Engineering,SMB,188,1319708,Manufacturing,Eastern Europe,Romania,46.3452,26.107
1446,Herion Technologies,SMB,163,3927977,Tech,Western Europe,France,48.2504,0.1191
1447,Parden Labs,SMB,11,3645978,Tech,Eastern Europe,Poland,52.2899,17.1891
1448,Relex Partners,SMB,176,2627625,Finance,Eastern Europe,Hungary,46.5113,17.6739
1449,Genton Clinics,SMB,111,2208706,Healthcare,Western Europe,Netherlands,52.6594,7.759
1450,Merion Production,SMB,74,3072392,Manufacturing,Eastern Europe,Czech Republic,49.1511,15.7746
1451,Parton Group,SMB,68,4246309,Finance,Eastern Europe,Czech Republic,51.575,16.2964
1452,Velton Commerce,SMB,150,936650,Retail,Western Europe,France,46.2417,3.6304
1453,Unkon Capital,SMB,163,4152210,Finance,Eastern Europe,Poland,53.5163,18.9583
1454,Xanon Technologies,SMB,112,4870511,Tech,Western Europe,Germany,51.7451,11.5225
1455,Dalma Trading,SMB,61,4846584,Retail,Eastern Europe,Czech Republic,50.5015,15.1949
1456,Narion Technologies,SMB,53,802502,Tech,Eastern Europe,Slovakia,48.7791,18.3584
1457,Ferkon Advisory,SMB,112,3462249,Finance,Western Europe,France,44.1342,1.0797
1458,Varton Advisory,SMB,33,2886506,Finance,Eastern Europe,Slovakia,46.2768,20.7181
1459,Polden Clinics,SMB,67,2131795,Healthcare,UK,United Kingdom,53.2374,-0.4224
1460,Ralros Health,SMB,153,1107217,Healthcare,Eastern Europe,Romania,44.2752,24.9312
1461,Venex Advisory,SMB,157,2598338,Finance,UK,United Kingdom,55.8806,-0.4343
1462,Iden Production,SMB,127,4364803,Manufacturing,Western Europe,Belgium,51.8498,5.7874
1463,Pelros Therapeutics,SMB,66,2428793,Healthcare,Western Europe,Netherlands,49.9378,5.9683
1464,Talco Investments,SMB,83,1280219,Finance,UK,United Kingdom,55.0041,-3.1833
1465,Genvan Commerce,SMB,90,3465691,Retail,Eastern Europe,Poland,52.1728,17.4924
1466,Valco Medical,SMB,137,2174924,Healthcare,Western Europe,Switzerland,47.7155,10.2496
1467,Ilco Commerce,SMB,168,3486574,Retail,UK,United Kingdom,52.646,-0.3253
1468,Govon Distribution,SMB,167,555563,Retail,Western Europe,Germany,52.0791,11.2171
1469,Seldon Clinics,SMB,157,2804627,Healthcare,UK,United Kingdom,53.356,-2.9229
1470,Perion Systems,SMB,157,1575805,Tech,Eastern Europe,Slovakia,47.6013,18.3105
1471,Malex Engineering,SMB,185,1966331,Manufacturing,Western Europe,Austria,45.1628,13.7364
1472,Wenox Clinics,SMB,182,2267919,Healthcare,Eastern Europe,Hungary,46.2783,16.9421
1473,Onkon Works,SMB,77,2489267,Manufacturing,Western Europe,Austria,49.3092,12.9358
1474,Idon Works,SMB,117,3623159,Manufacturing,Eastern Europe,Romania,44.3196,24.5197
1475,Enos Therapeutics,SMB,185,2417356,Healthcare,Western Europe,France,46.557,4.5964
1476,Serlon Solutions,SMB,60,1723425,Tech,Western Europe,France,46.4767,3.9815
1477,Elmon Health,SMB,171,4836968,Healthcare,Western Europe,Germany,49.583,10.398
1478,Penmon Retail,SMB,22,3842037,Retail,Eastern Europe,Romania,44.6549,26.6925
1479,Genon Trading,SMB,125,3307302,Retail,Western Europe,Netherlands,51.9827,5.9493
1480,Tenlon Ventures,SMB,99,2168981,Finance,Eastern Europe,Romania,45.1207,24.4588
1481,Salco Engineering,SMB,93,4781919,Manufacturing,Eastern Europe,Czech Republic,52.1969,14.423
1482,Helvan Distribution,SMB,171,1715075,Retail,Western Europe,Germany,50.6054,9.3326
1483,Fremon Systems,SMB,113,1098477,Tech,Eastern Europe,Romania,45.5091,25.4616
1484,Gellon Technologies,SMB,164,3817319,Tech,Western Europe,Netherlands,52.8651,6.3522
1485,Zaex Medical,SMB,125,3972791,Healthcare,Eastern Europe,Romania,47.1395,25.0047
1486,Mordon Software,SMB,200,1171631,Tech,Western Europe,Switzerland,45.4731,6.9582
1487,Pelion Solutions,SMB,23,721164,Tech,Western Europe,Germany,53.384,10.2659
1488,Narlon Partners,SMB,31,3770267,Finance,Eastern Europe,Poland,49.9196,19.6905
1489,Irdon Capital,SMB,53,739673,Finance,Eastern Europe,Hungary,47.8324,17.5564
1490,Malros Goods,SMB,148,2785177,Retail,UK,United Kingdom,55.8212,-2.164
1491,Franex Production,SMB,172,4148854,Manufacturing,UK,United Kingdom,54.4542,-2.2173
1492,Henkon Trading,SMB,32,4206592,Retail,Eastern Europe,Romania,45.8083,23.5356
1493,Gilon Partners,SMB,44,3384715,Finance,Western Europe,Netherlands,49.6528,5.4166
1494,Codex Works,SMB,12,4110753,Manufacturing,Western Europe,Belgium,52.7348,4.3853
1495,Yamon Engineering,SMB,153,4166713,Manufacturing,Eastern Europe,Slovakia,48.0682,19.2587
1496,Perton Advisory,SMB,30,4042000,Finance,Eastern Europe,Hungary,48.8421,18.003
1497,Xavan Group,SMB,82,4962271,Finance,Eastern Europe,Slovakia,50.2379,20.6232
1498,Golton Ventures,SMB,173,4319694,Finance,Western Europe,Germany,49.612,9.348
1499,Fraros Industries,SMB,22,4987659,Manufacturing,Eastern Europe,Hungary,45.6389,16.997
1500,Calen Systems,SMB,12,2452956,Tech,Western Europe,Netherlands,50.2252,4.9921
1501,Ilion Digital,Mid-Market,711,29924036,Tech,Western Europe,Netherlands,51.7012,6.7286
1502,Halden Distribution,Mid-Market,258,22884752,Retail,Western Europe,Germany,52.9177,12.6582
1503,Velros Capital,Mid-Market,591,5846611,Finance,Eastern Europe,Czech Republic,48.261,17.2077
1504,Zanon Medical,Mid-Market,956,7248837,Healthcare,Eastern Europe,Hungary,48.5561,19.1148
1505,Norco Works,Mid-Market,599,25945304,Manufacturing,Eastern Europe,Slovakia,49.53,18.2422
1506,Norlon Software,Mid-Market,854,25053006,Tech,Eastern Europe,Slovakia,48.8046,18.4666
1507,Wenex Partners,Mid-Market,849,34136095,Finance,Western Europe,Switzerland,45.3889,6.2646
1508,Weldon Cloud,Mid-Market,210,7818127,Tech,Eastern Europe,Slovakia,46.7982,21.1457
1509,Melion Supplies,Mid-Market,455,15582964,Retail,Western Europe,Austria,45.775,15.854
1510,Ielvan Solutions,Mid-Market,919,40994062,Tech,Eastern Europe,Poland,49.6989,19.8229
1511,Ialon Solutions,Mid-Market,975,28308098,Tech,Western Europe,Netherlands,54.5084,6.7428
1512,Falen Healthcare,Mid-Market,338,21823939,Healthcare,Eastern Europe,Poland,52.8462,18.3908
1513,Gerox Production,Mid-Market,781,17524307,Manufacturing,Western Europe,Netherlands,52.3137,5.2505
1514,Welden Capital,Mid-Market,768,15760464,Finance,Eastern Europe,Romania,47.7383,25.3934
1515,Morlon Production,Mid-Market,995,47817204,Manufacturing,Western Europe,Netherlands,52.308,5.0704
1516,Ilton Partners,Mid-Market,836,21024694,Finance,Western Europe,Germany,51.7987,9.7204
1517,Idvan Distribution,Mid-Market,900,38389958,Retail,Eastern Europe,Slovakia,50.2952,18.1493
1518,Helkon Components,Mid-Market,299,40111393,Manufacturing,Eastern Europe,Romania,45.449,24.0101
1519,Celma Software,Mid-Market,310,37572648,Tech,Eastern Europe,Czech Republic,48.1932,13.1564
1520,Xaden Technologies,Mid-Market,919,44614423,Tech,Eastern Europe,Hungary,47.9896,19.5291
1521,Yavan Digital,Mid-Market,414,49006594,Tech,Western Europe,Switzerland,44.6544,10.3511
1522,Flalen Therapeutics,Mid-Market,772,32914146,Healthcare,Eastern Europe,Hungary,48.7051,17.2035
1523,Lacon Capital,Mid-Market,273,25394689,Finance,Eastern Europe,Slovakia,47.5291,17.4033
1524,Fralex Medical,Mid-Market,595,17714473,Healthcare,UK,United Kingdom,52.0061,-3.3449
1525,Idion Components,Mid-Market,772,32862566,Manufacturing,Western Europe,Switzerland,49.0375,8.4921
1526,Varden Software,Mid-Market,638,11986193,Tech,Eastern Europe,Romania,46.7725,25.9128
1527,Narco Trading,Mid-Market,815,34730043,Retail,Eastern Europe,Slovakia,47.8876,17.9909
1528,Gelon Therapeutics,Mid-Market,849,33896276,Healthcare,Eastern Europe,Romania,47.6243,24.4617
1529,Felex Trading,Mid-Market,764,22051632,Retail,Eastern Europe,Slovakia,48.9281,19.0753
1530,Normon Healthcare,Mid-Market,492,44980966,Healthcare,Western Europe,Belgium,48.001,2.1733
1531,Ferox Industries,Mid-Market,420,26132895,Manufacturing,UK,United Kingdom,51.5328,0.422
1532,Menion Commerce,Mid-Market,785,43360220,Retail,UK,United Kingdom,56.0956,-1.9436
1533,Venox Software,Mid-Market,797,21767613,Tech,Western Europe,France,44.392,1.5354
1534,Marco Advisory,Mid-Market,952,10180909,Finance,Western Europe,Austria,46.999,16.5894
1535,Parion Ventures,Mid-Market,791,11399773,Finance,Western Europe,Belgium,52.1285,5.448
1536,Omlon Trading,Mid-Market,990,27440509,Retail,Western Europe,Austria,46.9077,15.9006
1537,Claros Healthcare,Mid-Market,869,45419778,Healthcare,Western Europe,Germany,53.0489,9.0336
1538,Criton Commerce,Mid-Market,753,42910662,Retail,Eastern Europe,Poland,50.9239,16.8059
1539,Rellon Group,Mid-Market,603,34904799,Finance,Eastern Europe,Czech Republic,47.5526,16.6579
1540,Velco Works,Mid-Market,352,13871056,Manufacturing,Eastern Europe,Czech Republic,49.4597,16.9318
1541,Telex Digital,Mid-Market,609,38676779,Tech,Eastern Europe,Poland,52.1408,17.9128
1542,Diora Goods,Mid-Market,605,48771651,Retail,Western Europe,France,46.1046,0.6905
1543,Bryton Technologies,Mid-Market,996,33861222,Tech,Eastern Europe,Slovakia,47.4312,17.5582
1544,Xendon Trading,Mid-Market,557,17783550,Retail,Eastern Europe,Poland,52.7587,18.7177
1545,Sarkon Finance,Mid-Market,653,46821046,Finance,Eastern Europe,Romania,44.2463,24.1486
1546,Gilmon Industries,Mid-Market,976,10758909,Manufacturing,UK,United Kingdom,52.4984,-2.6309
1547,Invan Trading,Mid-Market,495,5921625,Retail,Western Europe,Austria,49.6336,16.3438
1548,Granon Commerce,Mid-Market,958,41104935,Retail,Western Europe,Belgium,50.356,3.6594
1549,Lindon Capital,Mid-Market,345,49846208,Finance,Eastern Europe,Romania,46.144,25.5152
1550,Hermon Partners,Mid-Market,406,46470914,Finance,UK,United Kingdom,52.7773,-4.1994
1551,Norden Technologies,Mid-Market,879,49298586,Tech,Eastern Europe,Poland,49.733,19.9019
1552,Zaion Pharma,Mid-Market,721,11684291,Healthcare,Western Europe,Switzerland,46.2326,10.599
1553,Gelden Components,Mid-Market,669,42627103,Manufacturing,Eastern Europe,Poland,50.3321,19.1033
1554,Henox Systems,Mid-Market,963,15536444,Tech,Western Europe,Austria,46.5246,14.4497
1555,Nelkon Group,Mid-Market,714,23513877,Finance,Western Europe,Switzerland,45.8116,10.68
1556,Golion Technologies,Mid-Market,231,42241349,Tech,Western Europe,Belgium,52.452,6.0743
1557,Milkon Advisory,Mid-Market,592,39944782,Finance,Western Europe,Belgium,51.2847,2.439
1558,Walex Goods,Mid-Market,637,25963652,Retail,Eastern Europe,Czech Republic,49.3867,15.8645
1559,Joion Group,Mid-Market,901,18576809,Finance,Eastern Europe,Czech Republic,50.5624,15.9052
1560,Uncon Labs,Mid-Market,989,14741012,Tech,Eastern Europe,Slovakia,50.7478,19.3503
1561,Umkon Medical,Mid-Market,937,12944836,Healthcare,UK,United Kingdom,51.8391,-1.8352
1562,Emros Partners,Mid-Market,624,32598638,Finance,UK,United Kingdom,55.3272,-0.0993
1563,Verkon Industries,Mid-Market,335,17398127,Manufacturing,UK,United Kingdom,52.2598,-3.5603
1564,Ilmon Commerce,Mid-Market,811,20581506,Retail,Eastern Europe,Romania,46.428,25.4618
1565,Celis Stores,Mid-Market,820,36458185,Retail,Western Europe,Switzerland,48.1991,6.3704
1566,Verco Retail,Mid-Market,398,20184928,Retail,Western Europe,Belgium,50.4572,2.6876
1567,Nelros Manufacturing,Mid-Market,888,18611930,Manufacturing,UK,United Kingdom,56.251,-3.3872
1568,Joton Software,Mid-Market,533,35705320,Tech,UK,United Kingdom,55.8356,-2.0503
1569,Flalon Production,Mid-Market,521,31451006,Manufacturing,Eastern Europe,Slovakia,49.8767,19.1019
1570,Imlon Healthcare,Mid-Market,240,39940169,Healthcare,Eastern Europe,Slovakia,48.8262,21.5789
1571,Herlon Components,Mid-Market,751,31549017,Manufacturing,Eastern Europe,Poland,53.7889,17.8286
1572,Monmon Technologies,Mid-Market,651,31712004,Tech,Western Europe,Switzerland,49.113,6.6493
1573,Cetax Commerce,Mid-Market,256,39693245,Retail,Western Europe,France,45.8123,2.7657
1574,Tarton Components,Mid-Market,998,44288731,Manufacturing,Eastern Europe,Poland,53.0132,17.1659
1575,Olros Engineering,Mid-Market,805,18551427,Manufacturing,Western Europe,Netherlands,51.8544,3.6944
1576,Graex Systems,Mid-Market,936,13290912,Tech,Western Europe,Switzerland,48.8358,9.6824
1577,Milros Cloud,Mid-Market,945,39337354,Tech,Western Europe,Netherlands,50.0265,6.3364
1578,Karmon Therapeutics,Mid-Market,544,42949497,Healthcare,Western Europe,Belgium,48.2195,2.8544
1579,Gelton Trading,Mid-Market,630,25673704,Retail,Western Europe,France,44.5943,3.2602
1580,Linmon Retail,Mid-Market,335,18613147,Retail,UK,United Kingdom,54.6323,-3.9122
1581,Wenmon Supplies,Mid-Market,206,45801110,Retail,Western Europe,Belgium,50.4881,4.4932
1582,Sarion Capital,Mid-Market,816,45272170,Finance,Eastern Europe,Hungary,46.9687,19.1094
1583,Varco Finance,Mid-Market,413,8282885,Finance,Eastern Europe,Slovakia,49.3432,21.3006
1584,Harkon Technologies,Mid-Market,792,45485802,Tech,Eastern Europe,Poland,50.1269,16.7622
1585,Iaton Ventures,Mid-Market,889,24084455,Finance,Western Europe,Germany,50.7848,8.7912
1586,Xenion Trading,Mid-Market,667,43853770,Retail,Eastern Europe,Slovakia,50.1365,18.0871
1587,Senmon Therapeutics,Mid-Market,270,33677217,Healthcare,Western Europe,Netherlands,51.2141,7.2876
1588,Ulvan Engineering,Mid-Market,538,40369910,Manufacturing,Western Europe,France,44.3101,3.997
1589,Caldo Industries,Mid-Market,845,40497006,Manufacturing,Eastern Europe,Slovakia,46.4909,20.0568
1590,Ildon Production,Mid-Market,466,40258408,Manufacturing,Eastern Europe,Romania,45.5353,26.639
1591,Olkon Clinics,Mid-Market,947,47403246,Healthcare,Western Europe,France,46.7714,2.182
1592,Garton Industries,Mid-Market,399,5106093,Manufacturing,Western Europe,Austria,46.1636,13.4524
1593,Dymos Digital,Mid-Market,831,32825488,Tech,Eastern Europe,Poland,53.0873,17.6367
1594,Inkon Technologies,Mid-Market,907,23899648,Tech,Western Europe,Switzerland,45.3617,8.9031
1595,Joros Trading,Mid-Market,317,27366236,Retail,Western Europe,Austria,47.75,15.8352
1596,Serdon Investments,Mid-Market,547,37152411,Finance,Eastern Europe,Poland,53.5602,17.5701
1597,Norton Supplies,Mid-Market,750,27488828,Retail,Eastern Europe,Hungary,45.4769,19.2031
1598,Imros Goods,Mid-Market,779,26173037,Retail,Western Europe,Switzerland,44.5801,8.3054
1599,Monros Manufacturing,Mid-Market,563,9443481,Manufacturing,Western Europe,Switzerland,45.9586,10.2809
1600,Welex Investments,Mid-Market,785,45647106,Finance,Western Europe,Belgium,51.1326,6.212
1601,Gelion Digital,Mid-Market,233,23219883,Tech,Western Europe,Netherlands,53.1263,4.3725
1602,Finton Technologies,Mid-Market,422,40238892,Tech,UK,United Kingdom,53.7595,0.2536
1603,Ielon Systems,Mid-Market,655,38956729,Tech,Western Europe,Germany,52.589,12.4668
1604,Genox Trading,Mid-Market,951,40140077,Retail,UK,United Kingdom,52.4511,0.1182
1605,Finon Commerce,Mid-Market,893,13906497,Retail,Western Europe,Germany,52.8107,12.5901
1606,Varex Stores,Mid-Market,519,7954800,Retail,Western Europe,Switzerland,48.6241,6.2792
1607,Selvan MedTech,Mid-Market,734,49223686,Healthcare,UK,United Kingdom,53.8344,-4.2693
1608,Selon Partners,Mid-Market,406,17921519,Finance,Eastern Europe,Romania,46.5943,23.4492
1609,Zacon Capital,Mid-Market,362,23363460,Finance,Western Europe,Belgium,51.3556,3.3633
1610,Morvan Technologies,Mid-Market,763,26373160,Tech,Eastern Europe,Slovakia,46.7119,19.9126
1611,Raleon Technologies,Mid-Market,519,46155375,Tech,Eastern Europe,Romania,46.2704,23.2564
1612,Selton Industries,Mid-Market,309,30742936,Manufacturing,Western Europe,Germany,51.0537,11.2775
1613,Tallon Cloud,Mid-Market,907,34919565,Tech,Western Europe,Switzerland,47.2806,8.6638
1614,Elron Group,Mid-Market,747,10271106,Finance,Western Europe,France,47.2645,3.0544
1615,Silon Supplies,Mid-Market,680,11527209,Retail,Eastern Europe,Poland,53.4643,21.1984
1616,Grakon Partners,Mid-Market,348,46402282,Finance,Eastern Europe,Hungary,47.0527,21.6372
1617,Salkon Clinics,Mid-Market,533,35419311,Healthcare,Western Europe,Switzerland,48.8863,7.3516
1618,Karion Cloud,Mid-Market,490,28395186,Tech,Western Europe,Netherlands,51.9933,7.0288
1619,Lakon Components,Mid-Market,534,42322585,Manufacturing,Eastern Europe,Hungary,48.7878,20.8838
1620,Polros Cloud,Mid-Market,836,21353830,Tech,Western Europe,Belgium,50.0041,4.0672
1621,Gildon Solutions,Mid-Market,806,33933885,Tech,Western Europe,Germany,50.4036,11.9696
1622,Golex Healthcare,Mid-Market,879,49936444,Healthcare,Eastern Europe,Romania,46.1226,23.5808
1623,Unton Retail,Mid-Market,534,42251305,Retail,Eastern Europe,Hungary,45.2716,19.8804
1624,Morden Pharma,Mid-Market,811,30428287,Healthcare,Western Europe,Belgium,48.348,2.5437
1625,Fizen Industries,Mid-Market,795,47690150,Manufacturing,Eastern Europe,Poland,50.4881,17.2946
1626,Jacon Commerce,Mid-Market,792,35008384,Retail,Eastern Europe,Hungary,47.3563,18.8499
1627,Narton Advisory,Mid-Market,512,34174037,Finance,UK,United Kingdom,54.3514,0.066
1628,Irion Therapeutics,Mid-Market,723,32125229,Healthcare,Western Europe,Germany,51.6136,10.9575
1629,Kenco Solutions,Mid-Market,201,42582994,Tech,Western Europe,Netherlands,54.1054,7.6395
1630,Merex Clinics,Mid-Market,920,44605227,Healthcare,Western Europe,Netherlands,53.9284,3.9762
1631,Tenion Supplies,Mid-Market,879,16637355,Retail,Eastern Europe,Hungary,46.6078,19.6256
1632,Helton Software,Mid-Market,887,13425461,Tech,Eastern Europe,Romania,47.5998,23.1713
1633,Selmon Systems,Mid-Market,648,14111756,Tech,Eastern Europe,Czech Republic,50.9067,15.4335
1634,Lonon Software,Mid-Market,636,46825497,Tech,Eastern Europe,Hungary,49.1679,20.377
1635,Yacon Industries,Mid-Market,635,45572224,Manufacturing,Western Europe,Belgium,49.9236,3.1287
1636,Millon Works,Mid-Market,760,43678351,Manufacturing,Eastern Europe,Czech Republic,50.8606,14.3463
1637,Fiken Software,Mid-Market,694,10372944,Tech,Western Europe,Belgium,51.5244,2.5658
1638,Javan Commerce,Mid-Market,825,10935534,Retail,Eastern Europe,Romania,45.7247,22.7912
1639,Feris Production,Mid-Market,794,25971501,Manufacturing,Eastern Europe,Poland,52.8204,19.296
1640,Talon Labs,Mid-Market,681,43518159,Tech,Western Europe,Germany,51.0443,10.4633
1641,Ummon Advisory,Mid-Market,812,25405848,Finance,Western Europe,Netherlands,51.046,2.9766
1642,Welvan Trading,Mid-Market,253,49044881,Retail,Western Europe,Switzerland,46.6658,6.5454
1643,Jomon Pharma,Mid-Market,279,23646117,Healthcare,Eastern Europe,Romania,45.8238,23.0341
1644,Ladon Labs,Mid-Market,379,44713020,Tech,Western Europe,Netherlands,49.671,3.3577
1645,Frecon Solutions,Mid-Market,697,17133899,Tech,Western Europe,France,45.0063,3.2039
1646,Walden Engineering,Mid-Market,358,38282525,Manufacturing,Western Europe,Germany,53.5367,10.8777
1647,Waron Retail,Mid-Market,792,28157639,Retail,Western Europe,Belgium,51.63,2.8364
1648,Yelon Supplies,Mid-Market,688,25224405,Retail,Eastern Europe,Poland,49.6626,18.9201
1649,Arion Trading,Mid-Market,600,36849167,Retail,Eastern Europe,Slovakia,47.3683,20.6175
1650,Peron Cloud,Mid-Market,592,26185504,Tech,UK,United Kingdom,52.944,-0.5135
1651,Gerton Stores,Mid-Market,643,45968992,Retail,Western Europe,Austria,48.1871,16.7809
1652,Onvan Clinics,Mid-Market,799,31249884,Healthcare,Western Europe,Netherlands,53.6116,4.0767
1653,Keldon Trading,Mid-Market,894,17074002,Retail,Eastern Europe,Slovakia,50.0525,19.7998
1654,Xaros Works,Mid-Market,307,34926674,Manufacturing,Eastern Europe,Poland,49.4598,17.0885
1655,Galton Advisory,Mid-Market,259,44871965,Finance,Western Europe,France,43.8702,2.797
1656,Marden Therapeutics,Mid-Market,323,10797291,Healthcare,Western Europe,Austria,48.1904,15.5404
1657,Warox Trading,Mid-Market,314,17365680,Retail,Western Europe,Switzerland,47.1303,10.5358
1658,Inion Advisory,Mid-Market,484,33654370,Finance,Eastern Europe,Poland,52.5939,21.2135
1659,Xalon Clinics,Mid-Market,484,9186746,Healthcare,Eastern Europe,Romania,44.6867,26.3037
1660,Renmon Investments,Mid-Market,652,9657253,Finance,UK,United Kingdom,56.278,-3.1767
1661,Merden Therapeutics,Mid-Market,348,41281209,Healthcare,Western Europe,Belgium,48.8922,4.4603
1662,Kallon Industries,Mid-Market,306,7339475,Manufacturing,Eastern Europe,Poland,53.963,20.177
1663,Verden Systems,Mid-Market,869,47972172,Tech,Eastern Europe,Hungary,44.7938,19.3885
1664,Delos Healthcare,Mid-Market,601,43563454,Healthcare,Eastern Europe,Romania,44.158,24.0492
1665,Polkon Production,Mid-Market,946,9704310,Manufacturing,UK,United Kingdom,53.8907,-2.4804
1666,Finex Partners,Mid-Market,781,40923648,Finance,Western Europe,Switzerland,48.3899,8.1103
1667,Gardon Ventures,Mid-Market,293,29518583,Finance,Western Europe,Germany,51.8614,12.6941
1668,Genex Health,Mid-Market,408,16852653,Healthcare,Western Europe,Belgium,51.8023,3.4498
1669,Helex Labs,Mid-Market,310,47319994,Tech,Western Europe,France,45.1944,1.6505
1670,Wenvan Capital,Mid-Market,237,17958233,Finance,Western Europe,Switzerland,46.4899,6.6473
1671,Telkon Supplies,Mid-Market,859,25651469,Retail,Eastern Europe,Hungary,46.6438,20.8637
1672,Herkon Works,Mid-Market,548,8761750,Manufacturing,Eastern Europe,Hungary,49.5329,16.9821
1673,Yellon Stores,Mid-Market,736,35760714,Retail,Western Europe,Germany,49.7584,11.1692
1674,Monco Clinics,Mid-Market,954,14501975,Healthcare,Eastern Europe,Slovakia,47.3649,17.5602
1675,Kenvan Commerce,Mid-Market,334,5964032,Retail,Western Europe,Austria,45.229,15.5065
1676,Haldon Distribution,Mid-Market,806,9292122,Retail,UK,United Kingdom,53.7809,-3.6466
1677,Encos Pharma,Mid-Market,408,33602567,Healthcare,Western Europe,Austria,48.9959,13.1029
1678,Naleon Medical,Mid-Market,790,41633708,Healthcare,UK,United Kingdom,53.1212,0.3793
1679,Framon Capital,Mid-Market,544,9242749,Finance,UK,United Kingdom,55.3211,-1.5346
1680,Kalion Ventures,Mid-Market,650,21350712,Finance,Eastern Europe,Czech Republic,50.7815,15.767
1681,Omkon Systems,Mid-Market,217,37679834,Tech,Western Europe,Switzerland,47.3622,9.5883
1682,Relvan Labs,Mid-Market,491,32932201,Tech,Western Europe,Germany,52.2337,10.8687
1683,Ranex Clinics,Mid-Market,736,35227116,Healthcare,Eastern Europe,Czech Republic,48.3308,16.1991
1684,Pilvan Capital,Mid-Market,712,46073967,Finance,Western Europe,Switzerland,44.4881,6.6
1685,Xaex Goods,Mid-Market,397,12885816,Retail,Eastern Europe,Romania,45.4939,25.1886
1686,Henex Medical,Mid-Market,842,49246696,Healthcare,Eastern Europe,Slovakia,48.7377,19.5211
1687,Morton Finance,Mid-Market,686,38387655,Finance,Western Europe,France,47.1262,4.5429
1688,Menox Technologies,Mid-Market,646,21869945,Tech,UK,United Kingdom,54.7243,-3.0747
1689,Serion Commerce,Mid-Market,751,16803617,Retail,UK,United Kingdom,51.7166,-0.7979
1690,Permon Goods,Mid-Market,656,44775870,Retail,Western Europe,Germany,49.0543,9.0765
1691,Perco Finance,Mid-Market,313,26886363,Finance,Western Europe,Switzerland,48.7919,6.8503
1692,Halkon Digital,Mid-Market,683,44264876,Tech,Eastern Europe,Czech Republic,49.1777,14.1033
1693,Harvan Software,Mid-Market,597,30064159,Tech,Western Europe,France,48.3394,1.975
1694,Apex Components,Mid-Market,331,7153831,Manufacturing,Western Europe,Netherlands,54.4778,3.8111
1695,Linros Manufacturing,Mid-Market,376,28056995,Manufacturing,Western Europe,Germany,52.9583,10.1929
1696,Immon Healthcare,Mid-Market,767,20415060,Healthcare,Eastern Europe,Slovakia,50.7279,20.0906
1697,Haron Components,Mid-Market,486,5973337,Manufacturing,Eastern Europe,Czech Republic,50.2579,17.1849
1698,Mallon Production,Mid-Market,806,14997187,Manufacturing,UK,United Kingdom,53.1365,-1.6027
1699,Merlon Healthcare,Mid-Market,988,38837385,Healthcare,Western Europe,Germany,48.9003,10.2533
1700,Zelco Production,Mid-Market,447,10576177,Manufacturing,Western Europe,Switzerland,48.4065,7.9622
1701,Narox Stores,Mid-Market,503,21043205,Retail,Eastern Europe,Hungary,49.4497,17.5636
1702,Tardon Healthcare,Mid-Market,785,44168767,Healthcare,Western Europe,Switzerland,45.8242,9.2165
1703,Ranton Clinics,Mid-Market,580,47064571,Healthcare,Western Europe,France,48.071,1.7268
1704,Inton Retail,Mid-Market,541,40629460,Retail,Western Europe,Switzerland,44.6535,10.1672
1705,Terkon Ventures,Mid-Market,902,10433069,Finance,Eastern Europe,Slovakia,48.9122,21.1724
1706,Perlon Healthcare,Mid-Market,573,8460306,Healthcare,Eastern Europe,Poland,51.9737,21.15
1707,Valros Ventures,Mid-Market,773,9496690,Finance,Western Europe,Germany,50.5279,8.7763
1708,Hardon Distribution,Mid-Market,690,43931152,Retail,Western Europe,Netherlands,50.7932,3.3678
1709,Ulcon MedTech,Mid-Market,474,38793740,Healthcare,Western Europe,Switzerland,48.1044,7.3023
1710,Wenco Engineering,Mid-Market,740,13234890,Manufacturing,Western Europe,Netherlands,51.3261,5.2311
1711,Imton Commerce,Mid-Market,577,9404193,Retail,Eastern Europe,Slovakia,50.6973,19.4599
1712,Taleon Medical,Mid-Market,279,12339355,Healthcare,Western Europe,Germany,50.6534,8.7941
1713,Heldon Partners,Mid-Market,843,6522718,Finance,Eastern Europe,Hungary,45.4525,17.9213
1714,Kenex Industries,Mid-Market,956,48264040,Manufacturing,Eastern Europe,Czech Republic,49.6695,15.1006
1715,Renvan Ventures,Mid-Market,544,32628164,Finance,Western Europe,France,47.8747,2.2981
1716,Fermax Investments,Mid-Market,743,41807112,Finance,Eastern Europe,Romania,45.8307,25.7293
1717,Verton Works,Mid-Market,696,29957941,Manufacturing,Eastern Europe,Romania,44.2587,23.7
1718,Walon Stores,Mid-Market,834,15790426,Retail,Western Europe,Netherlands,51.0219,7.5811
1719,Vallon Manufacturing,Mid-Market,883,15300190,Manufacturing,Western Europe,France,47.8967,3.1643
1720,Valvan Finance,Mid-Market,579,17381356,Finance,Western Europe,Netherlands,52.4726,5.0044
1721,Nalon Manufacturing,Mid-Market,660,41229833,Manufacturing,Western Europe,Netherlands,54.4901,3.5397
1722,Palion Works,Mid-Market,349,35738593,Manufacturing,Western Europe,Germany,50.7228,10.3971
1723,Irros Labs,Mid-Market,497,43502206,Tech,UK,United Kingdom,54.7362,-3.0222
1724,Ibton Software,Mid-Market,691,7689784,Tech,Eastern Europe,Hungary,46.3934,17.4616
1725,Uldon Retail,Mid-Market,657,28984275,Retail,Western Europe,Germany,50.7081,12.1044
1726,Nardon Finance,Mid-Market,986,23651376,Finance,Eastern Europe,Czech Republic,50.2172,14.1107
1727,Quamon Software,Mid-Market,725,31469320,Tech,Eastern Europe,Hungary,48.0853,21.6881
1728,Levan Manufacturing,Mid-Market,570,31679665,Manufacturing,Eastern Europe,Slovakia,50.917,21.7422
1729,Laion Supplies,Mid-Market,560,25675257,Retail,Western Europe,Belgium,49.8642,3.4233
1730,Velion Pharma,Mid-Market,626,34695965,Healthcare,Western Europe,Switzerland,48.739,9.4076
1731,Xaton Systems,Mid-Market,802,45126786,Tech,Eastern Europe,Hungary,48.343,18.971
1732,Ulmon Systems,Mid-Market,805,30217659,Tech,Western Europe,Austria,49.9332,12.3306
1733,Polon Solutions,Mid-Market,928,43112219,Tech,Eastern Europe,Romania,45.4726,25.1791
1734,Gilros Pharma,Mid-Market,510,44272661,Healthcare,Western Europe,Belgium,49.4473,4.4529
1735,Seron Components,Mid-Market,469,25144027,Manufacturing,Eastern Europe,Czech Republic,47.4342,13.0122
1736,Mardon MedTech,Mid-Market,384,38009944,Healthcare,Western Europe,Switzerland,47.6296,7.1384
1737,Ielton Goods,Mid-Market,814,29277269,Retail,Western Europe,Netherlands,52.0653,7.6531
1738,Onlon Works,Mid-Market,911,13025125,Manufacturing,Western Europe,Netherlands,52.74,5.1802
1739,Kenmon Components,Mid-Market,528,35940136,Manufacturing,Eastern Europe,Romania,44.2142,22.6926
1740,Menon Technologies,Mid-Market,565,8269201,Tech,Western Europe,Netherlands,51.4058,5.9812
1741,Isdon Ventures,Mid-Market,388,11342368,Finance,Eastern Europe,Poland,51.9693,20.4322
1742,Sallon Stores,Mid-Market,509,23217303,Retail,Eastern Europe,Romania,47.5341,25.8248
1743,Iaex Goods,Mid-Market,214,14190521,Retail,Western Europe,Austria,47.9002,16.1166
1744,Iscon Finance,Mid-Market,305,19621425,Finance,Eastern Europe,Hungary,46.4016,21.4539
1745,Melton Components,Mid-Market,739,40708334,Manufacturing,Eastern Europe,Slovakia,49.2671,21.3571
1746,Termon Industries,Mid-Market,320,13806840,Manufacturing,Eastern Europe,Poland,51.4867,21.1802
1747,Parmon Works,Mid-Market,812,40106063,Manufacturing,Western Europe,Netherlands,50.2951,5.0097
1748,Relros Labs,Mid-Market,911,14553573,Tech,Western Europe,Switzerland,48.3729,6.8118
1749,Marlon Capital,Mid-Market,982,12497549,Finance,Western Europe,France,48.6055,1.824
1750,Fredon Cloud,Mid-Market,876,39459005,Tech,Western Europe,Belgium,48.2126,2.5391
1751,Selco Solutions,Mid-Market,211,11476246,Tech,Western Europe,Netherlands,49.8164,4.3082
1752,Ralmon Systems,Mid-Market,560,6963546,Tech,Eastern Europe,Slovakia,50.7059,18.1239
1753,Cerva Solutions,Mid-Market,365,38597006,Tech,Eastern Europe,Romania,48.144,24.1392
1754,Herden Goods,Mid-Market,982,5938471,Retail,Western Europe,Austria,45.3417,16.0979
1755,Terex Finance,Mid-Market,205,11622686,Finance,Western Europe,Netherlands,50.4589,6.5701
1756,Narvan Medical,Mid-Market,651,12202425,Healthcare,UK,United Kingdom,53.3323,-1.5531
1757,Imden Healthcare,Mid-Market,316,26090992,Healthcare,UK,United Kingdom,52.5714,-3.3622
1758,Kenkon Industries,Mid-Market,771,7725194,Manufacturing,Eastern Europe,Hungary,48.5114,20.4237
1759,Monon Finance,Mid-Market,904,34793374,Finance,Western Europe,Netherlands,51.8847,6.4809
1760,Iaros Manufacturing,Mid-Market,688,29658574,Manufacturing,Western Europe,Belgium,48.9439,2.348
1761,Palkon Systems,Mid-Market,893,10704650,Tech,Eastern Europe,Poland,51.3818,19.2133
1762,Eldis Technologies,Mid-Market,373,9342642,Tech,Western Europe,Austria,49.8879,15.7072
1763,Tenton MedTech,Mid-Market,439,33501416,Healthcare,Western Europe,Austria,49.2201,14.0214
1764,Henton Works,Mid-Market,860,31859351,Manufacturing,Eastern Europe,Slovakia,49.1682,20.9815
1765,Imco Industries,Mid-Market,351,35510021,Manufacturing,Eastern Europe,Hungary,49.6376,19.4571
1766,Galon Solutions,Mid-Market,302,8546865,Tech,Western Europe,France,46.8419,0.373
1767,Nalex Cloud,Mid-Market,357,25317383,Tech,Eastern Europe,Czech Republic,49.2132,16.396
1768,Carmo Stores,Mid-Market,407,24700674,Retail,Eastern Europe,Slovakia,50.0379,21.1637
1769,Warco Industries,Mid-Market,760,6185839,Manufacturing,Eastern Europe,Slovakia,47.9181,21.4984
1770,Genlon Clinics,Mid-Market,586,34699440,Healthcare,UK,United Kingdom,53.4181,-2.9272
1771,Haven Digital,Mid-Market,924,16015533,Tech,Western Europe,Switzerland,48.6018,7.2152
1772,Ianon Components,Mid-Market,892,37920502,Manufacturing,Western Europe,Belgium,50.4373,2.5469
1773,Unlon Engineering,Mid-Market,719,8740455,Manufacturing,Eastern Europe,Hungary,47.0796,21.1718
1774,Garex Capital,Mid-Market,492,26507235,Finance,Eastern Europe,Hungary,47.7847,18.6638
1775,Genco Technologies,Mid-Market,228,46953307,Tech,Western Europe,Netherlands,51.3444,6.5103
1776,Kalen Finance,Mid-Market,451,21617089,Finance,Western Europe,Netherlands,51.6596,3.0822
1777,Velden Goods,Mid-Market,374,6322849,Retail,Eastern Europe,Poland,53.7447,17.1724
1778,Ielmon Advisory,Mid-Market,474,6369173,Finance,Western Europe,Belgium,50.8402,6.507
1779,Ulex Engineering,Mid-Market,787,11558258,Manufacturing,Western Europe,Netherlands,51.4887,4.7515
1780,Norros Software,Mid-Market,884,27786105,Tech,Eastern Europe,Romania,45.8837,26.4573
1781,Xaion Commerce,Mid-Market,278,40959212,Retail,Western Europe,Belgium,49.0088,5.1772
1782,Golvan Advisory,Mid-Market,961,11171185,Finance,Western Europe,Austria,47.0101,13.1294
1783,Terlon Clinics,Mid-Market,744,36894720,Healthcare,Western Europe,Netherlands,50.9668,5.6321
1784,Onmon Partners,Mid-Market,880,41235268,Finance,Eastern Europe,Romania,45.9232,23.8995
1785,Salon Capital,Mid-Market,761,17119917,Finance,Western Europe,Austria,47.5768,15.3578
1786,Inden Trading,Mid-Market,961,36359657,Retail,Eastern Europe,Czech Republic,50.1842,14.0648
1787,Herdon Healthcare,Mid-Market,780,47061049,Healthcare,Eastern Europe,Slovakia,50.4639,21.7342
1788,Onros Engineering,Mid-Market,984,25151159,Manufacturing,Western Europe,France,44.9019,3.4322
1789,Frelex Components,Mid-Market,474,24263236,Manufacturing,UK,United Kingdom,54.6696,-0.2702
1790,Cedor Software,Mid-Market,397,6859195,Tech,Eastern Europe,Czech Republic,49.3293,13.5678
1791,Indon Commerce,Mid-Market,863,7483278,Retail,Western Europe,Belgium,50.7991,4.1807
1792,Freden Labs,Mid-Market,764,16810168,Tech,Western Europe,Netherlands,53.5483,4.1889
1793,Flakon Health,Mid-Market,286,26065792,Healthcare,UK,United Kingdom,55.4112,-4.2234
1794,Telden Group,Mid-Market,293,31635175,Finance,Western Europe,Belgium,52.4839,5.3584
1795,Verlon Stores,Mid-Market,324,40027978,Retail,Western Europe,Germany,51.5549,10.4012
1796,Palton Therapeutics,Mid-Market,815,13205859,Healthcare,UK,United Kingdom,53.9823,-4.0488
1797,Mervan Clinics,Mid-Market,962,20833536,Healthcare,Western Europe,Austria,48.6862,16.0292
1798,Tarvan Capital,Mid-Market,461,44559396,Finance,Western Europe,France,48.5496,1.8974
1799,Loros Works,Mid-Market,900,21532046,Manufacturing,Western Europe,Germany,50.2824,10.0189
1800,Penkon MedTech,Mid-Market,516,6414266,Healthcare,UK,United Kingdom,53.8761,-2.6613
1801,Ibcon Health,Enterprise,4927,185819159,Healthcare,Eastern Europe,Poland,52.8534,20.544
1802,Falis Group,Enterprise,9764,176906563,Finance,Eastern Europe,Romania,47.9158,25.8262
1803,Nalton Manufacturing,Enterprise,5930,98452774,Manufacturing,Western Europe,Belgium,52.6375,6.5896
1804,Tenon Capital,Enterprise,7657,473761555,Finance,UK,United Kingdom,56.0795,-1.3432
1805,Neldon Investments,Enterprise,6452,435143686,Finance,Western Europe,Belgium,50.3555,4.0648
1806,Quavan Health,Enterprise,6765,275953146,Healthcare,Eastern Europe,Czech Republic,50.7924,15.5317
1807,Ibion Stores,Enterprise,1854,394334396,Retail,Eastern Europe,Romania,45.6663,22.5368
1808,Sarmon Cloud,Enterprise,6007,218428111,Tech,Western Europe,Switzerland,44.9805,7.7033
1809,Ibvan Labs,Enterprise,3132,368909976,Tech,Western Europe,Austria,48.5678,15.838
1810,Helden Components,Enterprise,5271,143135840,Manufacturing,UK,United Kingdom,53.8918,-0.8241
1811,Dalco Engineering,Enterprise,3981,261255577,Manufacturing,Western Europe,Netherlands,50.5933,4.8725
1812,Verox Clinics,Enterprise,4748,97768931,Healthcare,UK,United Kingdom,51.6037,-4.3851
1813,Yaton Systems,Enterprise,5263,130128631,Tech,Eastern Europe,Czech Republic,47.5489,16.09
1814,Finkon Clinics,Enterprise,8130,465194120,Healthcare,Western Europe,Austria,45.5868,15.5929
1815,Loden MedTech,Enterprise,5362,204598406,Healthcare,Western Europe,France,47.2678,0.6527
1816,Maron Components,Enterprise,5637,440148420,Manufacturing,Western Europe,France,46.7004,4.676
1817,Relion Digital,Enterprise,4859,381614552,Tech,Western Europe,France,43.8439,4.5806
1818,Colma Therapeutics,Enterprise,8683,121513854,Healthcare,Western Europe,Switzerland,47.5362,6.1287
1819,Linlon Capital,Enterprise,5199,89221437,Finance,Eastern Europe,Czech Republic,50.8667,16.5423
1820,Finlon Works,Enterprise,1746,52878157,Manufacturing,Western Europe,France,46.0547,1.4715
1821,Nelvan Manufacturing,Enterprise,1674,361646536,Manufacturing,Western Europe,Belgium,51.3563,2.6612
1822,Tenkon Ventures,Enterprise,6199,431315557,Finance,Eastern Europe,Romania,47.7895,23.0596
1823,Welkon Works,Enterprise,5604,451484613,Manufacturing,Western Europe,Netherlands,49.8208,3.4394
1824,Tenmon Pharma,Enterprise,5322,327547597,Healthcare,Western Europe,Netherlands,52.6647,6.6078
1825,Loton Components,Enterprise,3479,348325586,Manufacturing,Western Europe,Switzerland,49.2728,9.5184
1826,Irkon Trading,Enterprise,1588,302462221,Retail,Western Europe,France,44.4431,0.8493
1827,Olden Technologies,Enterprise,1669,287039077,Tech,Western Europe,Germany,53.676,12.536
1828,Locon Pharma,Enterprise,3426,116386363,Healthcare,Eastern Europe,Hungary,47.1649,21.1292
1829,Ison Labs,Enterprise,5470,352391137,Tech,UK,United Kingdom,55.6748,-0.7503
1830,Paleon Manufacturing,Enterprise,7823,91250725,Manufacturing,Eastern Europe,Poland,52.0301,19.4539
1831,Fladon Trading,Enterprise,2999,261618303,Retail,Eastern Europe,Romania,43.5298,25.8066
1832,Gollon Components,Enterprise,8862,293769197,Manufacturing,UK,United Kingdom,52.2689,-4.0947
1833,Monion MedTech,Enterprise,8424,224437663,Healthcare,Eastern Europe,Poland,51.0471,16.8192
1834,Feston Therapeutics,Enterprise,5636,223501025,Healthcare,UK,United Kingdom,52.5568,-4.2566
1835,Pelon Solutions,Enterprise,3917,178892036,Tech,Western Europe,Austria,46.907,13.9943
1836,Herex Therapeutics,Enterprise,5669,397445675,Healthcare,Western Europe,France,44.5147,3.5975
1837,Amara Health,Enterprise,6081,417736140,Healthcare,Western Europe,Netherlands,52.0542,4.9618
1838,Danex Technologies,Enterprise,7359,305786609,Tech,Eastern Europe,Romania,45.9633,24.8481
1839,Wallon Engineering,Enterprise,8113,388597104,Manufacturing,Western Europe,Belgium,52.055,5.0693
1840,Talkon Cloud,Enterprise,3541,315924108,Tech,Eastern Europe,Hungary,48.0822,20.1381
1841,Qualon Commerce,Enterprise,8826,211272403,Retail,Eastern Europe,Romania,45.7411,22.7959
1842,Ercon Healthcare,Enterprise,5842,355230275,Healthcare,Eastern Europe,Romania,47.6077,25.0155
1843,Diamo Components,Enterprise,8613,404793961,Manufacturing,UK,United Kingdom,54.0533,-2.4349
1844,Vardon Components,Enterprise,1267,111168648,Manufacturing,Western Europe,Netherlands,52.5278,6.6432
1845,Karon Trading,Enterprise,7820,428160359,Retail,Western Europe,France,47.9145,-0.0737
1846,Kenden Finance,Enterprise,4067,163316470,Finance,Eastern Europe,Hungary,47.8191,18.2254
1847,Ralon Systems,Enterprise,9756,59618162,Tech,UK,United Kingdom,55.8581,-3.9683
1848,Monden Ventures,Enterprise,8975,212564502,Finance,Western Europe,Switzerland,46.6856,9.159
1849,Nelmon Medical,Enterprise,3214,57449579,Healthcare,Eastern Europe,Hungary,48.7232,17.3382
1850,Garmon Software,Enterprise,3379,398826413,Tech,Western Europe,France,47.9951,0.7461
1851,Iaden Engineering,Enterprise,8593,129545825,Manufacturing,Eastern Europe,Slovakia,47.1546,18.7046
1852,Omden Industries,Enterprise,8948,303128837,Manufacturing,Western Europe,France,47.3939,1.9263
1853,Gelco Pharma,Enterprise,7419,77338638,Healthcare,Eastern Europe,Czech Republic,48.7742,17.1473
1854,Menmon Digital,Enterprise,5765,69873466,Tech,Eastern Europe,Hungary,49.5974,21.1431
1855,Halco Advisory,Enterprise,8994,174503468,Finance,Eastern Europe,Slovakia,50.8764,21.7254
1856,Gradon Systems,Enterprise,7835,304121390,Tech,Western Europe,Austria,46.5793,12.3176
1857,Fiston Components,Enterprise,3644,204624610,Manufacturing,UK,United Kingdom,53.7416,-2.3188
1858,Lodon Solutions,Enterprise,6557,373250044,Tech,Western Europe,France,46.2382,2.6383
1859,Palex Therapeutics,Enterprise,7396,273800584,Healthcare,Eastern Europe,Czech Republic,51.7159,16.615
1860,Fanex Medical,Enterprise,3655,383849087,Healthcare,Eastern Europe,Romania,47.3799,26.3988
1861,Varon Group,Enterprise,9064,104172275,Finance,Eastern Europe,Hungary,45.3455,17.8974
1862,Umion Works,Enterprise,1298,242622168,Manufacturing,UK,United Kingdom,52.6736,-1.7158
1863,Filco Ventures,Enterprise,8056,111186798,Finance,Western Europe,Austria,45.1599,12.3183
1864,Falon Capital,Enterprise,6821,463054471,Finance,Eastern Europe,Hungary,45.9891,18.6016
1865,Nalmon Retail,Enterprise,2707,429248252,Retail,Eastern Europe,Czech Republic,51.567,17.3685
1866,Harlon Health,Enterprise,2735,469646433,Healthcare,Western Europe,Belgium,52.8132,5.7788
1867,Loex Stores,Enterprise,2728,139682298,Retail,UK,United Kingdom,55.6181,-4.2902
1868,Polmon Cloud,Enterprise,8234,459076677,Tech,Western Europe,Netherlands,50.3852,4.2606
1869,Nalvan Manufacturing,Enterprise,3258,116026245,Manufacturing,UK,United Kingdom,54.7355,-2.827
1870,Armont Production,Enterprise,6593,203952190,Manufacturing,Western Europe,Germany,49.9266,11.9457
1871,Yadon Solutions,Enterprise,5022,131395648,Tech,Western Europe,Switzerland,48.0742,7.5032
1872,Morox Distribution,Enterprise,7707,296291174,Retail,Western Europe,France,44.39,1.8441
1873,Pilros Industries,Enterprise,9477,87356116,Manufacturing,Eastern Europe,Poland,51.6129,20.4508
1874,Merdon Advisory,Enterprise,1608,404429382,Finance,Western Europe,France,45.8704,1.6663
1875,Harox Labs,Enterprise,5987,437379766,Tech,Eastern Europe,Slovakia,51.0633,19.2965
1876,Norvan Investments,Enterprise,3407,425968051,Finance,Western Europe,Netherlands,54.101,5.852
1877,Linion Works,Enterprise,8245,424451872,Manufacturing,Western Europe,Austria,48.1218,15.0909
1878,Ralco Health,Enterprise,2381,69848211,Healthcare,Eastern Europe,Hungary,48.577,21.3049
1879,Ision Ventures,Enterprise,4502,99832127,Finance,Eastern Europe,Czech Republic,49.9023,15.704
1880,Warkon Works,Enterprise,9847,368097950,Manufacturing,Eastern Europe,Czech Republic,47.4171,17.4516
1881,Halex Partners,Enterprise,1983,250241504,Finance,Eastern Europe,Hungary,49.6348,17.4522
1882,Idkon Goods,Enterprise,8353,209966653,Retail,Western Europe,Germany,52.4828,12.6067
1883,Gervan Commerce,Enterprise,9738,369732891,Retail,Western Europe,France,47.7269,4.645
1884,Selon Advisory,Enterprise,7188,328993906,Finance,Western Europe,Switzerland,47.1638,6.3999
1885,Iamon Finance,Enterprise,8444,102606819,Finance,Western Europe,Austria,45.9628,15.8927
1886,Zadon Commerce,Enterprise,3131,305686423,Retail,Eastern Europe,Poland,49.8612,18.7244
1887,Salion Production,Enterprise,7469,191569480,Manufacturing,Western Europe,Austria,47.0138,14.7948
1888,Kendon Manufacturing,Enterprise,7831,492280610,Manufacturing,Western Europe,Belgium,51.4451,6.7391
1889,Taron Systems,Enterprise,9409,334080471,Tech,Western Europe,Switzerland,46.5886,10.5402
1890,Leton Goods,Enterprise,7052,113762042,Retail,Western Europe,Germany,52.4325,12.6203
1891,Elios Pharma,Enterprise,3512,113212370,Healthcare,Western Europe,Netherlands,52.4588,3.0014
1892,Fadon Ventures,Enterprise,3329,470795392,Finance,Western Europe,Netherlands,52.0296,6.756
1893,Malco Industries,Enterprise,9009,51119783,Manufacturing,UK,United Kingdom,55.9453,-3.4221
1894,Milco Engineering,Enterprise,8412,231367472,Manufacturing,Western Europe,Germany,50.7879,10.7653
1895,Welion Engineering,Enterprise,8552,458923182,Manufacturing,Eastern Europe,Slovakia,46.864,17.8926
1896,Arnex Commerce,Enterprise,7712,257895274,Retail,Western Europe,Switzerland,45.9261,9.6991
1897,Elema Healthcare,Enterprise,5545,396773797,Healthcare,Western Europe,Germany,53.4904,12.3502
1898,Parco MedTech,Enterprise,6061,351208393,Healthcare,Eastern Europe,Slovakia,49.3505,21.058
1899,Salvan Cloud,Enterprise,1867,356147620,Tech,Eastern Europe,Czech Republic,52.0758,15.7092
1900,Unden Technologies,Enterprise,3945,60186366,Tech,Western Europe,Germany,49.3014,12.5809
1901,Harmon Goods,Enterprise,2387,483212427,Retail,Western Europe,Switzerland,48.4946,8.5978
1902,Morco Commerce,Enterprise,6570,284621940,Retail,Western Europe,Germany,51.1574,12.5692
1903,Narex Manufacturing,Enterprise,2628,340865534,Manufacturing,UK,United Kingdom,53.4101,-4.0449
1904,Fexon Ventures,Enterprise,3773,81629069,Finance,Western Europe,Germany,49.4711,12.6608
1905,Ilros Clinics,Enterprise,6244,126482927,Healthcare,Western Europe,Switzerland,44.5925,7.6497
1906,Talvan Health,Enterprise,4875,314666321,Healthcare,Western Europe,Germany,48.9594,9.0981
1907,Gerkon Supplies,Enterprise,7670,85142611,Retail,Western Europe,Germany,50.0464,9.4917
1908,Talton Solutions,Enterprise,2664,182239945,Tech,Eastern Europe,Poland,50.7458,21.4174
1909,Omcon Manufacturing,Enterprise,9200,159230094,Manufacturing,Eastern Europe,Romania,46.2412,24.6299
1910,Narden Capital,Enterprise,8402,72436953,Finance,UK,United Kingdom,54.1877,-2.3812
1911,Yanon Pharma,Enterprise,1986,308871778,Healthcare,UK,United Kingdom,54.7653,-3.6631
1912,Golkon Production,Enterprise,4486,364154932,Manufacturing,Eastern Europe,Hungary,49.6962,21.1122
1913,Venmon Capital,Enterprise,7477,424966382,Finance,Western Europe,Austria,47.8154,13.5032
1914,Lamon Pharma,Enterprise,9271,480600834,Healthcare,Eastern Europe,Romania,47.7914,23.4543
1915,Maleon MedTech,Enterprise,5474,182031743,Healthcare,UK,United Kingdom,56.3982,-0.9612
1916,Marox Healthcare,Enterprise,3191,397056598,Healthcare,Western Europe,Belgium,52.795,3.6423
1917,Nalen Supplies,Enterprise,9012,459345410,Retail,Western Europe,Germany,52.0635,9.9658
1918,Wenlon Industries,Enterprise,8294,410909279,Manufacturing,Eastern Europe,Poland,52.0932,21.0629
1919,Emion Investments,Enterprise,1139,116982089,Finance,Eastern Europe,Slovakia,47.9898,18.0859
1920,Merton Advisory,Enterprise,5607,415369832,Finance,Western Europe,Germany,49.8076,7.9989
1921,Creva Investments,Enterprise,4624,175766272,Finance,Western Europe,Austria,48.1262,16.0421
1922,Melon Medical,Enterprise,4426,53830790,Healthcare,Western Europe,Belgium,52.5225,5.5348
1923,Xakon Health,Enterprise,9094,141524193,Healthcare,Eastern Europe,Poland,53.7496,19.4455
1924,Gilden Systems,Enterprise,3102,450491440,Tech,Eastern Europe,Slovakia,49.0257,17.5268
1925,Malmon Solutions,Enterprise,5495,152999514,Tech,UK,United Kingdom,55.905,-0.8555
1926,Salton Stores,Enterprise,1033,279305338,Retail,UK,United Kingdom,54.9034,-0.0845
1927,Fendon Stores,Enterprise,5490,115346690,Retail,Eastern Europe,Romania,45.5627,27.3755
1928,Imkon Works,Enterprise,4679,75213953,Manufacturing,Western Europe,Austria,48.7951,16.419
1929,Gerden Therapeutics,Enterprise,2341,356993318,Healthcare,Eastern Europe,Romania,43.4258,23.373
1930,Tendon Technologies,Enterprise,4226,138305372,Tech,Eastern Europe,Hungary,49.4889,21.485
1931,Narmon Group,Enterprise,1394,368112534,Finance,Eastern Europe,Poland,49.5394,18.7597
1932,Earos Retail,Enterprise,6584,496954439,Retail,Western Europe,Netherlands,50.8358,5.1679
1933,Melros Healthcare,Enterprise,8185,460222299,Healthcare,Eastern Europe,Czech Republic,52.0177,16.8787
1934,Elden Distribution,Enterprise,7184,218190614,Retail,Eastern Europe,Poland,54.2726,21.1836
1935,Galen Stores,Enterprise,5940,377887808,Retail,Eastern Europe,Poland,53.9956,18.8096
1936,Ranlon Industries,Enterprise,7250,265651954,Manufacturing,Western Europe,Germany,51.4963,9.3746
1937,Emden Supplies,Enterprise,8429,256115495,Retail,Western Europe,Austria,48.9374,15.12
1938,Kenion Goods,Enterprise,1426,293780605,Retail,UK,United Kingdom,53.1981,0.1879
1939,Senton Finance,Enterprise,4173,357740920,Finance,Western Europe,Germany,48.7614,11.4665
1940,Varlon Commerce,Enterprise,4047,180541492,Retail,Western Europe,Belgium,50.407,5.1043
1941,Leex Goods,Enterprise,6862,217067914,Retail,Western Europe,Netherlands,52.5226,5.3656
1942,Ranon Healthcare,Enterprise,5769,248014092,Healthcare,Eastern Europe,Czech Republic,49.6476,16.0166
1943,Senion Works,Enterprise,1895,276592351,Manufacturing,Eastern Europe,Czech Republic,47.5866,15.5355
1944,Verion Labs,Enterprise,8795,423008017,Tech,Western Europe,France,47.6263,1.4078
1945,Kalon Pharma,Enterprise,6500,380767855,Healthcare,Eastern Europe,Romania,47.66,25.2305
1946,Marton Industries,Enterprise,9126,167792635,Manufacturing,Western Europe,Belgium,52.3805,6.5527
1947,Varion Stores,Enterprise,6432,483400482,Retail,Eastern Europe,Hungary,47.8196,18.0951
1948,Dracon Capital,Enterprise,1492,347797788,Finance,Western Europe,Germany,50.5141,8.2687
1949,Helmon Software,Enterprise,1720,65937320,Tech,Western Europe,Switzerland,47.2284,9.5277
1950,Velmon Software,Enterprise,5030,145853701,Tech,Western Europe,Netherlands,53.1942,4.4991
1951,Warmon Solutions,Enterprise,7209,401580221,Tech,Eastern Europe,Poland,49.505,19.9873
1952,Linex Medical,Enterprise,7101,404822664,Healthcare,Western Europe,France,45.2254,0.9007
1953,Onon Therapeutics,Enterprise,3367,120219859,Healthcare,UK,United Kingdom,55.8919,-4.1731
1954,Markon Solutions,Enterprise,5007,74800853,Tech,Eastern Europe,Romania,44.9898,24.5477
1955,Dreva Stores,Enterprise,5050,78593194,Retail,Western Europe,Austria,46.4709,12.7428
1956,Gelmon Stores,Enterprise,8712,474663398,Retail,UK,United Kingdom,52.5462,-4.093
1957,Harex Supplies,Enterprise,9343,250932578,Retail,Western Europe,Belgium,51.7565,5.2254
1958,Terion Works,Enterprise,9107,304346974,Manufacturing,Western Europe,Switzerland,46.1694,9.1725
1959,Finven Manufacturing,Enterprise,4326,292708636,Manufacturing,Eastern Europe,Slovakia,49.4487,18.236
1960,Karlon Ventures,Enterprise,7130,186649345,Finance,Western Europe,Belgium,50.8569,6.6775
1961,Yaion Cloud,Enterprise,1675,299780863,Tech,Eastern Europe,Romania,45.6225,24.1579
1962,Nalkon Trading,Enterprise,9152,220199044,Retail,Western Europe,Belgium,50.1625,3.8376
1963,Xacon Group,Enterprise,2351,208118050,Finance,Western Europe,France,45.0281,0.0794
1964,Talros Industries,Enterprise,2613,113666385,Manufacturing,Eastern Europe,Poland,53.3294,21.233
1965,Onex Group,Enterprise,5960,450082295,Finance,Eastern Europe,Romania,44.3832,24.0462
1966,Norkon Retail,Enterprise,9899,190196026,Retail,Eastern Europe,Czech Republic,50.8282,17.99
1967,Valon Goods,Enterprise,7648,491233432,Retail,Western Europe,Netherlands,53.5156,4.8191
1968,Warion Commerce,Enterprise,3446,263409025,Retail,Western Europe,Switzerland,46.8632,9.5058
1969,Jaros Group,Enterprise,8680,437894791,Finance,Eastern Europe,Hungary,45.8686,19.835
1970,Penton Engineering,Enterprise,7844,162519957,Manufacturing,Eastern Europe,Romania,47.629,24.544
1971,Penox Industries,Enterprise,6007,446106077,Manufacturing,Eastern Europe,Romania,44.0948,26.7688
1972,Telion Components,Enterprise,7609,459547455,Manufacturing,Eastern Europe,Romania,45.0991,24.4957
1973,Golros Works,Enterprise,3280,132512355,Manufacturing,Western Europe,Germany,51.5379,8.061
1974,Ilex Engineering,Enterprise,7248,159631518,Manufacturing,Eastern Europe,Slovakia,49.0694,19.1544
1975,Altis Technologies,Enterprise,8398,393062284,Tech,Western Europe,Belgium,48.5432,4.8476
1976,Ielion Software,Enterprise,9006,64408815,Tech,Western Europe,Austria,45.8882,16.1324
1977,Flalis Digital,Enterprise,9592,87569920,Tech,UK,United Kingdom,52.9191,-3.3348
1978,Dunco Systems,Enterprise,7408,134307767,Tech,Eastern Europe,Czech Republic,48.9339,17.5491
1979,Valen Solutions,Enterprise,4383,119756863,Tech,Western Europe,Switzerland,44.6438,10.4755
1980,Imdon Finance,Enterprise,6085,365407343,Finance,Western Europe,Switzerland,47.624,6.4939
1981,Relon Engineering,Enterprise,8303,84343655,Manufacturing,Eastern Europe,Romania,44.4085,27.3554
1982,Gelex Goods,Enterprise,8540,298407730,Retail,Western Europe,Netherlands,54.1515,7.1962
1983,Karco Cloud,Enterprise,5874,259965041,Tech,Western Europe,Switzerland,48.705,7.9815
1984,Umdon Clinics,Enterprise,8080,295794616,Healthcare,Eastern Europe,Hungary,45.9457,21.3998
1985,Imon Therapeutics,Enterprise,1716,178685409,Healthcare,Western Europe,Austria,45.4777,15.4932
1986,Fralco Digital,Enterprise,4560,314939127,Tech,UK,United Kingdom,54.8333,-4.1663
1987,Gerex Clinics,Enterprise,6342,270168648,Healthcare,Eastern Europe,Romania,43.7827,22.9261
1988,Ranion Technologies,Enterprise,8568,254631336,Tech,Western Europe,Germany,51.0108,8.266
1989,Pardon Stores,Enterprise,3237,225616037,Retail,UK,United Kingdom,51.6889,-3.247
1990,Senvan Supplies,Enterprise,8172,125299236,Retail,Western Europe,Germany,49.1127,11.1851
1991,Erdis Healthcare,Enterprise,3904,207917711,Healthcare,Eastern Europe,Czech Republic,51.4925,16.0349
1992,Belco Engineering,Enterprise,5477,132407795,Manufacturing,Western Europe,Germany,52.057,7.9561
1993,Ralex Capital,Enterprise,8243,424060710,Finance,Western Europe,Germany,53.1634,10.5615
1994,Linden Healthcare,Enterprise,1859,371159055,Healthcare,Eastern Europe,Poland,51.3531,18.1416
1995,Mormon Systems,Enterprise,4909,157366501,Tech,Western Europe,France,48.3441,1.5732
1996,Zelmon Systems,Enterprise,2036,168416460,Tech,Western Europe,Germany,50.3856,8.8608
1997,Exton Distribution,Enterprise,9397,107812315,Retail,Eastern Europe,Czech Republic,50.9201,13.2201
1998,Zellon Capital,Enterprise,7473,279716486,Finance,Eastern Europe,Czech Republic,50.4234,17.6716
1999,Ranvan Investments,Enterprise,6182,56432452,Finance,Western Europe,Netherlands,50.4681,4.8107
2000,Teron Capital,Enterprise,7046,73589543,Finance,Western Europe,Switzerland,48.3754,8.9497
